[
  {
    "schoolId": "10076",
    "schoolName": "河北工程大学",
    "place": "校本部",
    "info": [
      {
        "name": "河北工程技术学院",
        "location": {
          "lat": 37.990448,
          "lng": 114.47525
        },
        "address": "河北省石家庄市红旗大街南端宫北路11号",
        "province": "河北省",
        "city": "石家庄市",
        "area": "桥西区",
        "street_id": "b107a0f5f36c3db395031986",
        "telephone": "(0311)83831598",
        "detail": 1,
        "uid": "b107a0f5f36c3db395031986"
      },
      {
        "name": "河北工程技术学院(北校区)",
        "location": {
          "lat": 38.002729,
          "lng": 114.468957
        },
        "address": "河北省石家庄市桥西区红旗大街597号",
        "province": "河北省",
        "city": "石家庄市",
        "area": "桥西区",
        "street_id": "8893a362cff035ff78f796f9",
        "detail": 1,
        "uid": "8893a362cff035ff78f796f9"
      },
      {
        "name": "河北农合社工程学院",
        "location": {
          "lat": 38.004959,
          "lng": 114.611014
        },
        "address": "河北省石家庄市裕华区信工路18",
        "province": "河北省",
        "city": "石家庄市",
        "area": "裕华区",
        "detail": 1,
        "uid": "a812a7f62a46ce78631c67d3"
      },
      {
        "name": "河北政府职业学院",
        "location": {
          "lat": 38.136204,
          "lng": 114.507974
        },
        "address": "河北省石家庄市新华区学府路41号",
        "province": "河北省",
        "city": "石家庄市",
        "area": "新华区",
        "street_id": "8e95c9df4311326cbe484212",
        "telephone": "(0311)88621131",
        "detail": 1,
        "uid": "8e95c9df4311326cbe484212"
      },
      {
        "name": "河北科技大学-电气工程学院",
        "location": {
          "lat": 37.980733,
          "lng": 114.530981
        },
        "address": "河北省石家庄市裕翔街26号",
        "province": "河北省",
        "city": "石家庄市",
        "area": "裕华区",
        "street_id": "61071e00fa31ca237dc87679",
        "detail": 1,
        "uid": "61071e00fa31ca237dc87679"
      },
      {
        "name": "河北省大型结构健康诊断与控制重点实验室风工程研究中心",
        "location": {
          "lat": 38.08883,
          "lng": 114.511262
        },
        "address": "北二环东路17号",
        "province": "河北省",
        "city": "石家庄市",
        "area": "长安区",
        "detail": 1,
        "uid": "4d4832b4c7f6a2d6f4eafc0f"
      },
      {
        "name": "河北工程技术学院-软件学院",
        "location": {
          "lat": 37.990107,
          "lng": 114.472792
        },
        "address": "河北省石家庄市桥西区宫北路11河北工程技术学院内",
        "province": "河北省",
        "city": "石家庄市",
        "area": "桥西区",
        "street_id": "abe54e5fa8c83e0e1df74d2e",
        "detail": 1,
        "uid": "abe54e5fa8c83e0e1df74d2e"
      },
      {
        "name": "河北工程技术学院-实验训楼",
        "location": {
          "lat": 37.989788,
          "lng": 114.474262
        },
        "address": "河北省石家庄市桥西区宫北路11号",
        "province": "河北省",
        "city": "石家庄市",
        "area": "桥西区",
        "detail": 1,
        "uid": "a19e62ac7ec6dfe93fe23127"
      },
      {
        "name": "河北科技大学(新校区)-工程训练中心",
        "location": {
          "lat": 37.979401,
          "lng": 114.525317
        },
        "address": "裕翔街26号",
        "province": "河北省",
        "city": "石家庄市",
        "area": "裕华区",
        "street_id": "ea3d84b56ba798730782c21c",
        "telephone": "(0311)81669126",
        "detail": 1,
        "uid": "ea3d84b56ba798730782c21c"
      },
      {
        "name": "材料科学与工程学院",
        "location": {
          "lat": 37.979213,
          "lng": 114.527273
        },
        "address": "裕翔街26号",
        "province": "河北省",
        "city": "石家庄市",
        "area": "裕华区",
        "street_id": "62674eac2c3067762bb97c86",
        "detail": 1,
        "uid": "62674eac2c3067762bb97c86"
      }
    ]
  },
  {
    "schoolId": "10077",
    "schoolName": "河北地质大学",
    "place": "校本部",
    "info": [
      {
        "name": "河北地质大学",
        "location": {
          "lat": 38.025828,
          "lng": 114.556091
        },
        "address": "河北石家庄市槐安东路136号",
        "province": "河北省",
        "city": "石家庄市",
        "area": "裕华区",
        "street_id": "a378cc79560734297bf79614",
        "telephone": "(0311)87207114",
        "detail": 1,
        "uid": "a378cc79560734297bf79614"
      },
      {
        "name": "河北地质大学-北院",
        "location": {
          "lat": 38.029692,
          "lng": 114.556001
        },
        "address": "槐安东路127号",
        "province": "河北省",
        "city": "石家庄市",
        "area": "裕华区",
        "street_id": "081c408749314887a3acc487",
        "detail": 1,
        "uid": "081c408749314887a3acc487"
      },
      {
        "name": "河北地质大学-西门",
        "location": {
          "lat": 38.025455,
          "lng": 114.553615
        },
        "address": "槐安东路136",
        "province": "河北省",
        "city": "石家庄市",
        "area": "裕华区",
        "street_id": "ed8557cc1c6117efb25c6a08",
        "detail": 1,
        "uid": "ed8557cc1c6117efb25c6a08"
      },
      {
        "name": "河北地质大学(育才校区)",
        "location": {
          "lat": 38.026175,
          "lng": 114.534664
        },
        "address": "河北省石家庄市裕华区槐安东路136号",
        "province": "河北省",
        "city": "石家庄市",
        "area": "裕华区",
        "street_id": "9ad6511805eaf2d716948e24",
        "telephone": "(0311)87208114",
        "detail": 1,
        "uid": "9ad6511805eaf2d716948e24"
      },
      {
        "name": "中国地质大学河北地质学习中心",
        "location": {
          "lat": 38.046533,
          "lng": 114.411492
        },
        "address": "河北省石家庄市桥西区中山西路901号",
        "province": "河北省",
        "city": "石家庄市",
        "area": "桥西区",
        "street_id": "ffb8f8d63a617a0ee8e582b4",
        "detail": 1,
        "uid": "ffb8f8d63a617a0ee8e582b4"
      },
      {
        "name": "河北地质大学学三楼",
        "location": {
          "lat": 38.026624,
          "lng": 114.554006
        },
        "address": "槐安东路136号石家庄经济学院",
        "province": "河北省",
        "city": "石家庄市",
        "area": "裕华区",
        "street_id": "f1a6dd078aa74767aecb6697",
        "detail": 1,
        "uid": "f1a6dd078aa74767aecb6697"
      },
      {
        "name": "河北地质大学惠馨园",
        "location": {
          "lat": 38.025085,
          "lng": 114.558544
        },
        "address": "槐安东路136号河北地质大学",
        "province": "河北省",
        "city": "石家庄市",
        "area": "裕华区",
        "detail": 1,
        "uid": "8e928ad6f214f4d6ab0dd8b9"
      },
      {
        "name": "河北地质大学-北2门",
        "location": {
          "lat": 38.027144,
          "lng": 114.554415
        },
        "address": "建华南大街与槐安东路交叉口东南150米",
        "province": "河北省",
        "city": "石家庄市",
        "area": "裕华区",
        "street_id": "ba7d3511687f9644210262c6",
        "detail": 1,
        "uid": "ba7d3511687f9644210262c6"
      },
      {
        "name": "河北地质大学-学九楼",
        "location": {
          "lat": 38.025907,
          "lng": 114.554916
        },
        "address": "槐安东路136号",
        "province": "河北省",
        "city": "石家庄市",
        "area": "裕华区",
        "detail": 1,
        "uid": "ffd916eb723c97571a11d524"
      },
      {
        "name": "河北地质大学-学7楼",
        "location": {
          "lat": 38.024526,
          "lng": 114.557553
        },
        "address": "河北省石家庄市裕华区",
        "province": "河北省",
        "city": "石家庄市",
        "area": "裕华区",
        "detail": 1,
        "uid": "1cd2cbdaeb9078dd42d63e2f"
      }
    ]
  },
  {
    "schoolId": "10080",
    "schoolName": "河北工业大学",
    "place": "廊坊分校",
    "info": [
      {
        "name": "河北工业大学廊坊分校-图书馆",
        "location": {
          "lat": 39.552114,
          "lng": 116.714243
        },
        "address": "新华路199",
        "province": "河北省",
        "city": "廊坊市",
        "area": "广阳区",
        "street_id": "c59ad26bea23815d9de321f8",
        "telephone": "(0316)2184521",
        "detail": 1,
        "uid": "c59ad26bea23815d9de321f8"
      },
      {
        "name": "河北工业大学(廊坊校区)",
        "location": {
          "lat": 39.55184,
          "lng": 116.714345
        },
        "address": "河北省廊坊市广阳区新华路144号",
        "province": "河北省",
        "city": "廊坊市",
        "area": "广阳区",
        "street_id": "5e662776d5326f19a1046457",
        "telephone": "(0316)2184534",
        "detail": 1,
        "uid": "5e662776d5326f19a1046457"
      },
      {
        "name": "河北工业大学廊坊分校保卫部",
        "location": {
          "lat": 39.551166,
          "lng": 116.710236
        },
        "address": "新华路144号",
        "province": "河北省",
        "city": "廊坊市",
        "area": "广阳区",
        "detail": 1,
        "uid": "ec0539cb5ab2453542ab9a39"
      },
      {
        "name": "河北工业大学廊坊校区-I创坊",
        "location": {
          "lat": 39.55138,
          "lng": 116.711475
        },
        "address": "河北省廊坊市广阳区新华路144号",
        "province": "河北省",
        "city": "廊坊市",
        "area": "广阳区",
        "street_id": "ada32565c54d120ff90cad99",
        "detail": 1,
        "uid": "ada32565c54d120ff90cad99"
      },
      {
        "name": "河北工业大学廊坊校区-东门",
        "location": {
          "lat": 39.550966,
          "lng": 116.711517
        },
        "address": "新华路144号",
        "province": "河北省",
        "city": "廊坊市",
        "area": "广阳区",
        "street_id": "354bc063288f05eb3517dce5",
        "detail": 1,
        "uid": "354bc063288f05eb3517dce5"
      },
      {
        "name": "河北工业大学廊坊校区教学A楼",
        "location": {
          "lat": 39.551734,
          "lng": 116.710813
        },
        "address": "新华路144号河北工业大学廊坊校区教学A楼",
        "province": "河北省",
        "city": "廊坊市",
        "area": "广阳区",
        "street_id": "52c9efd74d0860f0b6147f3a",
        "detail": 1,
        "uid": "52c9efd74d0860f0b6147f3a"
      },
      {
        "name": "河北工业大学廊坊校区东院校门",
        "location": {
          "lat": 39.551281,
          "lng": 116.712164
        },
        "address": "河北省廊坊市广阳区新华路199号",
        "province": "河北省",
        "city": "廊坊市",
        "area": "广阳区",
        "street_id": "bbbd9f3985d72d24d518b7d8",
        "detail": 1,
        "uid": "bbbd9f3985d72d24d518b7d8"
      },
      {
        "name": "河北工业大学城市学院宿舍楼-9号楼",
        "location": {
          "lat": 39.55179,
          "lng": 116.715834
        },
        "address": "河北省廊坊市广阳区新华路河北工业大学廊坊校区",
        "province": "河北省",
        "city": "廊坊市",
        "area": "广阳区",
        "detail": 1,
        "uid": "bec336bac14fd9bd59bbbc46"
      },
      {
        "name": "河北工业大学城市学院宿舍楼-8号楼",
        "location": {
          "lat": 39.552179,
          "lng": 116.715839
        },
        "address": "河北省廊坊市广阳区新源道街道河北工业大学廊坊校区",
        "province": "河北省",
        "city": "廊坊市",
        "area": "广阳区",
        "street_id": "7d394a12d84e01bb770269fa",
        "detail": 1,
        "uid": "7d394a12d84e01bb770269fa"
      },
      {
        "name": "教师公寓35号楼",
        "location": {
          "lat": 39.550919,
          "lng": 116.707723
        },
        "address": "河北省廊坊市广阳区河北工业大学(廊坊校区)",
        "province": "河北省",
        "city": "廊坊市",
        "area": "广阳区",
        "detail": 1,
        "uid": "3a4a562aed5a43492b3a9fd1"
      }
    ]
  },
  {
    "schoolId": "10081",
    "schoolName": "华北理工大学",
    "place": "迁安校区",
    "info": [
      {
        "name": "华北理工大学石家庄函授站",
        "location": {
          "lat": 38.060677,
          "lng": 114.495873
        },
        "address": "河北省石家庄市新华区车辆厂前街附近",
        "province": "河北省",
        "city": "石家庄市",
        "area": "新华区",
        "street_id": "191433367afe0908c51b751c",
        "detail": 1,
        "uid": "191433367afe0908c51b751c"
      }
    ]
  },
  {
    "schoolId": "10081",
    "schoolName": "华北理工大学",
    "place": "曹妃甸校区",
    "info": [
      {
        "name": "华北理工大学(曹妃甸校区)",
        "location": {
          "lat": 39.21084,
          "lng": 118.59931
        },
        "address": "河北省唐山市曹妃甸区渤海大道21号",
        "province": "河北省",
        "city": "唐山市",
        "area": "曹妃甸区",
        "telephone": "(0315)8805021",
        "detail": 1,
        "uid": "d05b348b096cb1dcbe48420e"
      },
      {
        "name": "华北理工大学曹妃甸校区图书馆",
        "location": {
          "lat": 39.207373,
          "lng": 118.598191
        },
        "address": "河北省唐山市曹妃甸区",
        "province": "河北省",
        "city": "唐山市",
        "area": "曹妃甸区",
        "detail": 1,
        "uid": "ab62fa44a4667f2f9d9d68ad"
      },
      {
        "name": "华北理工大学曹妃甸校区HC座教学楼",
        "location": {
          "lat": 39.211577,
          "lng": 118.597724
        },
        "address": "河北省唐山市曹妃甸区",
        "province": "河北省",
        "city": "唐山市",
        "area": "曹妃甸区",
        "detail": 1,
        "uid": "75464da19b9c03deb6f42fe7"
      },
      {
        "name": "华北理工大学机械工程学院",
        "location": {
          "lat": 39.204191,
          "lng": 118.601204
        },
        "address": "河北省唐山市曹妃甸区华北理工大学(曹妃甸校区)",
        "province": "河北省",
        "city": "唐山市",
        "area": "曹妃甸区",
        "detail": 1,
        "uid": "e520209605199556ca213d5d"
      },
      {
        "name": "华北理工大学西门",
        "location": {
          "lat": 39.203725,
          "lng": 118.590378
        },
        "address": "河北省唐山市曹妃甸区华北理工大学(曹妃甸校区)",
        "province": "河北省",
        "city": "唐山市",
        "area": "曹妃甸区",
        "detail": 1,
        "uid": "e11cced3e843fbb96168584a"
      },
      {
        "name": "华北理工大学公共卫生学院",
        "location": {
          "lat": 39.204422,
          "lng": 118.593295
        },
        "address": "河北省唐山市曹妃甸区湾生态城渤海大道21号华北理工大学曹妃甸校区内",
        "province": "河北省",
        "city": "唐山市",
        "area": "曹妃甸区",
        "detail": 1,
        "uid": "fe4b2b002596d5efc16c1441"
      },
      {
        "name": "华北理工大学游泳馆",
        "location": {
          "lat": 39.205161,
          "lng": 118.589999
        },
        "address": "河北省唐山市滦南县华北理工大学(曹妃甸校区)",
        "province": "河北省",
        "city": "唐山市",
        "area": "曹妃甸区",
        "detail": 1,
        "uid": "ed4735c2bd18a9aad7b74e58"
      },
      {
        "name": "华北理工大学HB座教学楼",
        "location": {
          "lat": 39.2099,
          "lng": 118.600008
        },
        "address": "河北省唐山市曹妃甸区华北理工大学(曹妃甸校区)",
        "province": "河北省",
        "city": "唐山市",
        "area": "曹妃甸区",
        "detail": 1,
        "uid": "66e0be997223e1c55e17c393"
      },
      {
        "name": "兰园1号楼",
        "location": {
          "lat": 39.210392,
          "lng": 118.595242
        },
        "address": "河北省唐山市曹妃甸区华北理工大学(曹妃甸校区)",
        "province": "河北省",
        "city": "唐山市",
        "area": "曹妃甸区",
        "detail": 1,
        "uid": "fa4b432aa5b9b444d813184c"
      },
      {
        "name": "梅苑2号楼宿舍",
        "location": {
          "lat": 39.209128,
          "lng": 118.601979
        },
        "address": "河北省唐山市曹妃甸区华北理工大学(曹妃甸校区)",
        "province": "河北省",
        "city": "唐山市",
        "area": "曹妃甸区",
        "detail": 1,
        "uid": "5c5c10e4ebe42b74bda24059"
      }
    ]
  },
  {
    "schoolId": "10082",
    "schoolName": "河北科技大学",
    "place": "校本部",
    "info": []
  },
  {
    "schoolId": "10084",
    "schoolName": "河北建筑工程学院",
    "place": "校本部",
    "info": [
      {
        "name": "河北科技大学(新校区)-建筑工程学院",
        "location": {
          "lat": 37.987035,
          "lng": 114.528133
        },
        "address": "裕翔街26",
        "province": "河北省",
        "city": "石家庄市",
        "area": "裕华区",
        "street_id": "55bbf687a2cfc92909b93a01",
        "detail": 1,
        "uid": "55bbf687a2cfc92909b93a01"
      },
      {
        "name": "晋州市房产建筑工程有限公司",
        "location": {
          "lat": 38.036756,
          "lng": 115.040237
        },
        "address": "石家庄市晋州市朝阳街",
        "province": "河北省",
        "city": "石家庄市",
        "area": "晋州市",
        "street_id": "265ff9b0f99cf9532cb908dc",
        "detail": 1,
        "uid": "265ff9b0f99cf9532cb908dc"
      },
      {
        "name": "河北建筑工程学院科研与研究生培养基地",
        "location": {
          "lat": 38.024645,
          "lng": 114.613598
        },
        "address": "河北省石家庄市裕华区天山大街",
        "province": "河北省",
        "city": "石家庄市",
        "area": "裕华区",
        "street_id": "19721f4c3fd9905c5bf6beef",
        "detail": 1,
        "uid": "19721f4c3fd9905c5bf6beef"
      },
      {
        "name": "河北世纪建筑材料设备检验有限公司（北门）",
        "location": {
          "lat": 37.990774,
          "lng": 114.473538
        },
        "address": "河北省石家庄市桥西区红旗大街597号",
        "province": "河北省",
        "city": "石家庄市",
        "area": "桥西区",
        "street_id": "aaa946100bccce0d601c670a",
        "detail": 1,
        "uid": "aaa946100bccce0d601c670a"
      },
      {
        "name": "石家庄经济学院-建筑工程系",
        "location": {
          "lat": 38.022597,
          "lng": 114.562833
        },
        "address": "东岗路河北城乡建设学校(东岗路)附近",
        "province": "河北省",
        "city": "石家庄市",
        "area": "裕华区",
        "street_id": "f72d11dada450837a80dd89b",
        "detail": 1,
        "uid": "f72d11dada450837a80dd89b"
      },
      {
        "name": "石家庄理工职业学院建工实验实训中心",
        "location": {
          "lat": 38.059167,
          "lng": 114.357342
        },
        "address": "经济开发区",
        "province": "河北省",
        "city": "石家庄市",
        "area": "鹿泉区",
        "detail": 1,
        "uid": "34b9a01936ee5b940f0a70bc"
      },
      {
        "name": "石家庄理工职业学院建工实验实训中心-南门",
        "location": {
          "lat": 38.059146,
          "lng": 114.35733
        },
        "address": "石柏南大街石家庄理工职业学院附近",
        "province": "河北省",
        "city": "石家庄市",
        "area": "鹿泉区",
        "detail": 1,
        "uid": "cbdc935b96cf937da0acc46a"
      },
      {
        "name": "河北建工",
        "location": {
          "lat": 38.053675,
          "lng": 114.568236
        },
        "address": "谈固街道谈固西街北宋路",
        "province": "河北省",
        "city": "石家庄市",
        "area": "长安区",
        "street_id": "a8ab6bf9b1825a20badf8f5b",
        "detail": 1,
        "uid": "a8ab6bf9b1825a20badf8f5b"
      },
      {
        "name": "河北建工物流有限公司",
        "location": {
          "lat": 38.054783,
          "lng": 114.439343
        },
        "address": "石获南路66号1号综合楼11楼1106室",
        "province": "河北省",
        "city": "石家庄市",
        "area": "桥西区",
        "street_id": "bf94682982630867e6e9657f",
        "detail": 1,
        "uid": "bf94682982630867e6e9657f"
      },
      {
        "name": "河北建工集团",
        "location": {
          "lat": 38.054949,
          "lng": 114.353096
        },
        "address": "上庄镇御园路39号鹿泉光谷科技园",
        "province": "河北省",
        "city": "石家庄市",
        "area": "鹿泉区",
        "street_id": "2ca2d4f844c3a0703f9a5e7e",
        "detail": 1,
        "uid": "2ca2d4f844c3a0703f9a5e7e"
      }
    ]
  },
  {
    "schoolId": "10085",
    "schoolName": "河北水利电力学院",
    "place": "校本部",
    "info": [
      {
        "name": "河北省石津灌区水电工程处",
        "location": {
          "lat": 38.108688,
          "lng": 114.479434
        },
        "address": "河北省石家庄市新华区古城西路42号",
        "province": "河北省",
        "city": "石家庄市",
        "area": "新华区",
        "street_id": "50c9e0c52f245d51b9df8f0e",
        "detail": 1,
        "uid": "50c9e0c52f245d51b9df8f0e"
      },
      {
        "name": "水电安装",
        "location": {
          "lat": 38.04434,
          "lng": 114.506825
        },
        "address": "河北省石家庄市桥西区东马路4号附近",
        "province": "河北省",
        "city": "石家庄市",
        "area": "桥西区",
        "street_id": "b0354567be8464fbc61b7565",
        "detail": 1,
        "uid": "b0354567be8464fbc61b7565"
      },
      {
        "name": "银河灯饰水电安装",
        "location": {
          "lat": 37.947352,
          "lng": 114.606938
        },
        "address": "河北省石家庄市栾城区爱贝佳孕婴生活馆(栾城区冶河镇政府东南)",
        "province": "河北省",
        "city": "石家庄市",
        "area": "栾城区",
        "telephone": "13131175473",
        "detail": 1,
        "uid": "7cf9c08b8503495c4afd3fa0"
      },
      {
        "name": "水电暖安装",
        "location": {
          "lat": 38.040618,
          "lng": 114.564607
        },
        "address": "河北省石家庄市裕华区谈固西街98号附近",
        "province": "河北省",
        "city": "石家庄市",
        "area": "裕华区",
        "street_id": "ecd8e6c5972901d2bea24023",
        "telephone": "13032632958",
        "detail": 1,
        "uid": "ecd8e6c5972901d2bea24023"
      },
      {
        "name": "水电暖安装",
        "location": {
          "lat": 38.020929,
          "lng": 114.480001
        },
        "address": "河北省石家庄市桥西区广平街134号附近",
        "province": "河北省",
        "city": "石家庄市",
        "area": "桥西区",
        "street_id": "72e3bd46a9c1ee494f6d46c7",
        "detail": 1,
        "uid": "72e3bd46a9c1ee494f6d46c7"
      },
      {
        "name": "水电暖安装",
        "location": {
          "lat": 37.754617,
          "lng": 114.545567
        },
        "address": "河北省石家庄市元氏县盛禾防水材料南90米(槐阳大街西)",
        "province": "河北省",
        "city": "石家庄市",
        "area": "元氏县",
        "street_id": "d3f8990fc6b4877d3062129a",
        "telephone": "13731149444",
        "detail": 1,
        "uid": "d3f8990fc6b4877d3062129a"
      },
      {
        "name": "鑫玺卫浴水电改装",
        "location": {
          "lat": 37.949628,
          "lng": 115.216886
        },
        "address": "河北省辛集市市府西大街47号附近",
        "province": "河北省",
        "city": "石家庄市",
        "area": "辛集市",
        "street_id": "f9d3d3545a12bf18d23ce3dd",
        "detail": 1,
        "uid": "f9d3d3545a12bf18d23ce3dd"
      },
      {
        "name": "强强水电安装",
        "location": {
          "lat": 37.756909,
          "lng": 114.526898
        },
        "address": "河北省石家庄市元氏县槐荫路与长春路交叉口东北50米",
        "province": "河北省",
        "city": "石家庄市",
        "area": "元氏县",
        "street_id": "ea2a1ad4107886a63904b1e2",
        "detail": 1,
        "uid": "ea2a1ad4107886a63904b1e2"
      },
      {
        "name": "河北金城水电工程技术有限公司",
        "location": {
          "lat": 38.013998,
          "lng": 114.511306
        },
        "address": "石家庄市裕华区晶彩中心7楼702室",
        "province": "河北省",
        "city": "石家庄市",
        "area": "裕华区",
        "street_id": "8d96925c5eceab38c1f1cfdf",
        "detail": 1,
        "uid": "8d96925c5eceab38c1f1cfdf"
      },
      {
        "name": "水电站-宿舍负1栋",
        "location": {
          "lat": 38.053668,
          "lng": 114.452239
        },
        "address": "河北省石家庄市桥西区水电站宿舍负1栋",
        "province": "河北省",
        "city": "石家庄市",
        "area": "桥西区",
        "street_id": "404937168ad677ad94ec849d",
        "detail": 1,
        "uid": "404937168ad677ad94ec849d"
      }
    ]
  },
  {
    "schoolId": "10086",
    "schoolName": "河北农业大学",
    "place": "校本部",
    "info": [
      {
        "name": "河北农业大学石家庄函授站",
        "location": {
          "lat": 38.050933,
          "lng": 114.459833
        },
        "address": "河北省石家庄市桥西区友谊北大街59-61号4层",
        "province": "河北省",
        "city": "石家庄市",
        "area": "桥西区",
        "street_id": "84934133758981322b06ce2d",
        "detail": 1,
        "uid": "84934133758981322b06ce2d"
      },
      {
        "name": "河北农业大学函授站(北门)",
        "location": {
          "lat": 38.051011,
          "lng": 114.459765
        },
        "address": "友谊北大街59号",
        "province": "河北省",
        "city": "石家庄市",
        "area": "桥西区",
        "street_id": "bb078a7636ad544f2efaa794",
        "detail": 1,
        "uid": "bb078a7636ad544f2efaa794"
      },
      {
        "name": "河北农业大学种植物研究所",
        "location": {
          "lat": 38.199827,
          "lng": 114.614955
        },
        "address": "河北省石家庄市正定县",
        "province": "河北省",
        "city": "石家庄市",
        "area": "正定县",
        "detail": 1,
        "uid": "f9f4539c7b1cb82733621291"
      },
      {
        "name": "河北农业大学研究生培训基地",
        "location": {
          "lat": 38.06492,
          "lng": 114.453516
        },
        "address": "和平西路598号",
        "province": "河北省",
        "city": "石家庄市",
        "area": "新华区",
        "street_id": "5116c23b1ae323cb2e473369",
        "detail": 1,
        "uid": "5116c23b1ae323cb2e473369"
      },
      {
        "name": "中国农业大学农业推广研究生河北授课站",
        "location": {
          "lat": 38.06492,
          "lng": 114.453516
        },
        "address": "河北省石家庄市新华区和平西路592号附近",
        "province": "河北省",
        "city": "石家庄市",
        "area": "新华区",
        "street_id": "924cc21f4acc90ed40ab9a27",
        "detail": 1,
        "uid": "924cc21f4acc90ed40ab9a27"
      },
      {
        "name": "中国农业大学农业推广研究生河北授课站-南门",
        "location": {
          "lat": 38.065009,
          "lng": 114.453646
        },
        "address": "惠丰路与春华道交叉口西北50米",
        "province": "河北省",
        "city": "石家庄市",
        "area": "新华区",
        "street_id": "f0e451afb1c379c9aeb22a6e",
        "detail": 1,
        "uid": "f0e451afb1c379c9aeb22a6e"
      },
      {
        "name": "河北省农业广播电视学校",
        "location": {
          "lat": 38.033259,
          "lng": 114.543742
        },
        "address": "兴苑街4号",
        "province": "河北省",
        "city": "石家庄市",
        "area": "裕华区",
        "street_id": "edced7920225095ada2f280d",
        "detail": 1,
        "uid": "edced7920225095ada2f280d"
      },
      {
        "name": "河北省农业广播电视学校(赵县分校)",
        "location": {
          "lat": 37.763038,
          "lng": 114.783403
        },
        "address": "光明街与所里街交叉口西南200米",
        "province": "河北省",
        "city": "石家庄市",
        "area": "赵县",
        "street_id": "1dac32cb4d823a65cac3db2f",
        "detail": 1,
        "uid": "1dac32cb4d823a65cac3db2f"
      },
      {
        "name": "河北省农业广播电视学校(栾城县分校)",
        "location": {
          "lat": 37.887652,
          "lng": 114.658286
        },
        "address": "栾城区石栾大街58",
        "province": "河北省",
        "city": "石家庄市",
        "area": "栾城区",
        "detail": 1,
        "uid": "5707a0ca1bb1875d3362126e"
      },
      {
        "name": "河北厚勤农业开发有限公司",
        "location": {
          "lat": 38.005207,
          "lng": 114.523813
        },
        "address": "南二环东路20号河北师范大学院内D栋201室",
        "province": "河北省",
        "city": "石家庄市",
        "area": "裕华区",
        "detail": 1,
        "uid": "dc4acc5017a360f67f29bd38"
      }
    ]
  },
  {
    "schoolId": "10086",
    "schoolName": "河北农业大学",
    "place": "黄骅校区",
    "info": [
      {
        "name": "河北农业大学(渤海校区)",
        "location": {
          "lat": 38.387567,
          "lng": 117.439184
        },
        "address": "河北省沧州市黄骅新城科教园区渤海路1号",
        "province": "河北省",
        "city": "沧州市",
        "area": "黄骅市",
        "street_id": "44369f5e4bdb2499b1077dba",
        "telephone": "(0317)5605283",
        "detail": 1,
        "uid": "44369f5e4bdb2499b1077dba"
      },
      {
        "name": "河北农业大学渤海校区-学生公寓",
        "location": {
          "lat": 38.388681,
          "lng": 117.436567
        },
        "address": "河北省沧州市黄骅市河北农业大学渤海校区附近",
        "province": "河北省",
        "city": "沧州市",
        "area": "黄骅市",
        "detail": 1,
        "uid": "8f4a7a5e572a8c16eee4a5ce"
      },
      {
        "name": "河北农业大学渤海校区-北门",
        "location": {
          "lat": 38.389405,
          "lng": 117.435997
        },
        "address": "河北省沧州市黄骅市渤海路1号",
        "province": "河北省",
        "city": "沧州市",
        "area": "黄骅市",
        "street_id": "245df488e0e30b5130169bf1",
        "detail": 1,
        "uid": "245df488e0e30b5130169bf1"
      },
      {
        "name": "河北农业大学渤海校区-南门",
        "location": {
          "lat": 38.386246,
          "lng": 117.440829
        },
        "address": "黄骅市渤海路1号",
        "province": "河北省",
        "city": "沧州市",
        "area": "黄骅市",
        "street_id": "1b107fdc5ed641d070455bf0",
        "detail": 1,
        "uid": "1b107fdc5ed641d070455bf0"
      },
      {
        "name": "河北农业大学渤海校区-体育场",
        "location": {
          "lat": 38.386551,
          "lng": 117.434037
        },
        "address": "渤海路1号",
        "province": "河北省",
        "city": "沧州市",
        "area": "黄骅市",
        "street_id": "ab858d8210141555882fb5ca",
        "detail": 1,
        "uid": "ab858d8210141555882fb5ca"
      },
      {
        "name": "河北农业大学渤海校区图书馆",
        "location": {
          "lat": 38.388038,
          "lng": 117.440712
        },
        "address": "渤海路1号",
        "province": "河北省",
        "city": "沧州市",
        "area": "黄骅市",
        "street_id": "bf3111c78853152d42e1922b",
        "detail": 1,
        "uid": "bf3111c78853152d42e1922b"
      },
      {
        "name": "中国银行24小时自助银行(渤海路)",
        "location": {
          "lat": 38.387542,
          "lng": 117.436702
        },
        "address": "河北省沧州市黄骅市河北农业大学渤海校区学生公寓南",
        "province": "河北省",
        "city": "沧州市",
        "area": "黄骅市",
        "detail": 1,
        "uid": "391ce311c1e68fc4d81318bd"
      },
      {
        "name": "沧州中捷高新技术产业开发区河北中欧产业园",
        "location": {
          "lat": 38.387784,
          "lng": 117.433213
        },
        "address": "河北省沧州市黄骅市河北农业大学渤海校区",
        "province": "河北省",
        "city": "沧州市",
        "area": "黄骅市",
        "street_id": "b375249fe77c16c2df1e5204",
        "detail": 1,
        "uid": "b375249fe77c16c2df1e5204"
      },
      {
        "name": "张医师眼镜",
        "location": {
          "lat": 38.388678,
          "lng": 117.436562
        },
        "address": "沧州市黄骅市渤海路1号河北农业大学食堂三楼(河北农业大学渤海校区)",
        "province": "河北省",
        "city": "沧州市",
        "area": "黄骅市",
        "detail": 1,
        "uid": "6a5bff365499ce85601c67e4"
      }
    ]
  },
  {
    "schoolId": "10089",
    "schoolName": "河北医科大学",
    "place": "沧州医学高等专科学校",
    "info": []
  },
  {
    "schoolId": "10089",
    "schoolName": "河北医科大学",
    "place": "河北女子职业技术学院",
    "info": [
      {
        "name": "河北医科大学留学生公寓",
        "location": {
          "lat": 38.013095,
          "lng": 114.459307
        },
        "address": "友谊南大街与新石南路交叉口南200米",
        "province": "河北省",
        "city": "石家庄市",
        "area": "桥西区",
        "detail": 1,
        "uid": "d59db58019235544d81318d7"
      },
      {
        "name": "河北中医学院橘泉校区-图书馆",
        "location": {
          "lat": 38.013523,
          "lng": 114.459712
        },
        "address": "新石南路24号河北中医学院橘泉校区",
        "province": "河北省",
        "city": "石家庄市",
        "area": "桥西区",
        "street_id": "d6df91c146e6ee6af7b9166f",
        "detail": 1,
        "uid": "d6df91c146e6ee6af7b9166f"
      },
      {
        "name": "河北医科大学学生公寓西校区-3栋",
        "location": {
          "lat": 38.013081,
          "lng": 114.459815
        },
        "address": "河北省石家庄市桥西区红旗新石南路河北中医学院(橘泉校区)",
        "province": "河北省",
        "city": "石家庄市",
        "area": "桥西区",
        "street_id": "de40e91992d198742806cea1",
        "detail": 1,
        "uid": "de40e91992d198742806cea1"
      },
      {
        "name": "河北医科大学-科研楼",
        "location": {
          "lat": 38.014032,
          "lng": 114.462465
        },
        "address": "和平西路215号",
        "province": "河北省",
        "city": "石家庄市",
        "area": "桥西区",
        "street_id": "558153dd457c5490aecb6601",
        "detail": 1,
        "uid": "558153dd457c5490aecb6601"
      },
      {
        "name": "河北医科大学针灸科",
        "location": {
          "lat": 38.014136,
          "lng": 114.460501
        },
        "address": "河北省石家庄市桥西区新石南路322号附近",
        "province": "河北省",
        "city": "石家庄市",
        "area": "桥西区",
        "street_id": "c2f7a4339f727c0bad080f9b",
        "detail": 1,
        "uid": "c2f7a4339f727c0bad080f9b"
      },
      {
        "name": "河北医科大学中医学院门诊部",
        "location": {
          "lat": 38.014255,
          "lng": 114.459878
        },
        "address": "河北省石家庄市桥西区红旗新石南路河北中医学院(橘泉校区)",
        "province": "河北省",
        "city": "石家庄市",
        "area": "桥西区",
        "street_id": "799e0e9907fcce888733046f",
        "detail": 1,
        "uid": "41f64f7082773495eddfcae8"
      },
      {
        "name": "河北医科大学中医学院宿舍-5号楼",
        "location": {
          "lat": 38.014718,
          "lng": 114.462379
        },
        "address": "河北省石家庄市桥西区河北中医学院家属院5栋",
        "province": "河北省",
        "city": "石家庄市",
        "area": "桥西区",
        "street_id": "a1465eac8ab98bad4207c1dc",
        "detail": 1,
        "uid": "a1465eac8ab98bad4207c1dc"
      },
      {
        "name": "河北医科大学宿舍-南门",
        "location": {
          "lat": 38.014652,
          "lng": 114.46264
        },
        "address": "新石南路229",
        "province": "河北省",
        "city": "石家庄市",
        "area": "桥西区",
        "street_id": "1fa148ddf861635edb131865",
        "detail": 1,
        "uid": "1fa148ddf861635edb131865"
      },
      {
        "name": "河北医科大学西校区离退休人员棋类活动室",
        "location": {
          "lat": 38.014695,
          "lng": 114.462847
        },
        "address": "新石南路227号附近",
        "province": "河北省",
        "city": "石家庄市",
        "area": "桥西区",
        "street_id": "0d4afbf4db9005f3eedfca4a",
        "detail": 1,
        "uid": "0d4afbf4db9005f3eedfca4a"
      },
      {
        "name": "河北医科大学中医学院宿舍-2号楼",
        "location": {
          "lat": 38.015579,
          "lng": 114.462397
        },
        "address": "河北省石家庄市桥西区河北中医学院家属院2栋",
        "province": "河北省",
        "city": "石家庄市",
        "area": "桥西区",
        "street_id": "32ab508c09d6d1cedeee8bff",
        "detail": 1,
        "uid": "32ab508c09d6d1cedeee8bff"
      }
    ]
  },
  {
    "schoolId": "10089",
    "schoolName": "河北医科大学",
    "place": "沧州医专",
    "info": []
  },
  {
    "schoolId": "10092",
    "schoolName": "河北北方学院",
    "place": "东校区",
    "info": [
      {
        "name": "河北北方学院东校区-东门",
        "location": {
          "lat": 40.779042,
          "lng": 114.899475
        },
        "address": "富强路西50米",
        "province": "河北省",
        "city": "张家口市",
        "area": "桥东区",
        "street_id": "bc538c2b2be62c9496ca0780",
        "detail": 1,
        "uid": "bc538c2b2be62c9496ca0780"
      },
      {
        "name": "河北北方学院(东校区)",
        "location": {
          "lat": 40.77845,
          "lng": 114.897895
        },
        "address": "张家口市桥东区中兴北路辅路",
        "province": "河北省",
        "city": "张家口市",
        "area": "桥东区",
        "detail": 1,
        "uid": "5f8dac56e2f942f73062123d"
      },
      {
        "name": "河北北方学院东校区-西门",
        "location": {
          "lat": 40.777093,
          "lng": 114.896513
        },
        "address": "中兴北路与学府西大街交叉口北150米",
        "province": "河北省",
        "city": "张家口市",
        "area": "桥东区",
        "street_id": "10814a3e39ae17249b68b488",
        "detail": 1,
        "uid": "10814a3e39ae17249b68b488"
      },
      {
        "name": "北方学院东校区",
        "location": {
          "lat": 40.778572,
          "lng": 114.89791
        },
        "address": "33路;108路;特33路",
        "province": "河北省",
        "city": "张家口市",
        "area": "市桥东区",
        "detail": 0,
        "uid": "04861dc0bdf8bae8b6f42fb0"
      },
      {
        "name": "北方学院(东校区)-D3",
        "location": {
          "lat": 40.777885,
          "lng": 114.896718
        },
        "address": "盛华西大街北方学院东校区-D3附近",
        "province": "河北省",
        "city": "张家口市",
        "area": "桥东区",
        "street_id": "18593680641f931a94031993",
        "detail": 1,
        "uid": "18593680641f931a94031993"
      },
      {
        "name": "北方学院(东校区)-B2",
        "location": {
          "lat": 40.777556,
          "lng": 114.898913
        },
        "address": "富强路西150米",
        "province": "河北省",
        "city": "张家口市",
        "area": "桥东区",
        "street_id": "56daf9bb165bd5173517dcf7",
        "detail": 1,
        "uid": "56daf9bb165bd5173517dcf7"
      },
      {
        "name": "北方学院(东校区)-a2",
        "location": {
          "lat": 40.777407,
          "lng": 114.89701
        },
        "address": "河北省张家口市桥东区富强路北方学院(东校区)",
        "province": "河北省",
        "city": "张家口市",
        "area": "桥东区",
        "street_id": "080553df68f6fb87a4c756a5",
        "detail": 1,
        "uid": "080553df68f6fb87a4c756a5"
      },
      {
        "name": "华莱士(北方学院东校区店)",
        "location": {
          "lat": 40.777584,
          "lng": 114.899916
        },
        "address": "富强路时代广场小区西区沿街商铺",
        "province": "河北省",
        "city": "张家口市",
        "area": "桥东区",
        "detail": 1,
        "uid": "27a6fc5421ae9f632fb9085d"
      },
      {
        "name": "河北北方学院东校区公寓-1号楼",
        "location": {
          "lat": 40.779155,
          "lng": 114.898952
        },
        "address": "老鸦庄镇",
        "province": "河北省",
        "city": "张家口市",
        "area": "桥东区",
        "detail": 1,
        "uid": "51d2bd17fc550def2cb96dd6"
      },
      {
        "name": "河北北方学院东校区公寓-2号楼",
        "location": {
          "lat": 40.779573,
          "lng": 114.898936
        },
        "address": "富强路西100米",
        "province": "河北省",
        "city": "张家口市",
        "area": "桥东区",
        "street_id": "364931da00e8c155223bf2f3",
        "detail": 1,
        "uid": "364931da00e8c155223bf2f3"
      }
    ]
  },
  {
    "schoolId": "10092",
    "schoolName": "河北北方学院",
    "place": "长青路校区",
    "info": [
      {
        "name": "石家庄北方汽修学院",
        "location": {
          "lat": 38.185831,
          "lng": 114.588056
        },
        "address": "河北省石家庄市正定县盛凯路2号",
        "province": "河北省",
        "city": "石家庄市",
        "area": "正定县",
        "telephone": "(0311)87633333",
        "detail": 1,
        "uid": "416669a022fdb152d13ce3d0"
      },
      {
        "name": "河北北方学院成人大学教学站",
        "location": {
          "lat": 38.012327,
          "lng": 114.642242
        },
        "address": "河北省石家庄市裕华区中山西路",
        "province": "河北省",
        "city": "石家庄市",
        "area": "裕华区",
        "detail": 1,
        "uid": "9dd3e8a7c3ef6698b1077dab"
      },
      {
        "name": "石家庄市北方科技专修学院",
        "location": {
          "lat": 38.097384,
          "lng": 114.527579
        },
        "address": "河北省石家庄市长安区胜利北街378号",
        "province": "河北省",
        "city": "石家庄市",
        "area": "长安区",
        "street_id": "29b3543d24dc621a970319a8",
        "detail": 1,
        "uid": "29b3543d24dc621a970319a8"
      },
      {
        "name": "河北汇春北方汽配",
        "location": {
          "lat": 38.097413,
          "lng": 114.528463
        },
        "address": "胜利北大街323号中冀能源加油站南邻",
        "province": "河北省",
        "city": "石家庄市",
        "area": "长安区",
        "street_id": "750e6fffab18103ac16c14f5",
        "detail": 1,
        "uid": "750e6fffab18103ac16c14f5"
      },
      {
        "name": "河北北方减速机有限公司",
        "location": {
          "lat": 38.154623,
          "lng": 114.422338
        },
        "address": "大河镇正阳街",
        "province": "河北省",
        "city": "石家庄市",
        "area": "鹿泉区",
        "detail": 1,
        "uid": "6c34bcb3146185b8246e9862"
      },
      {
        "name": "河北北方旅行社有限公司",
        "location": {
          "lat": 38.068147,
          "lng": 114.51872
        },
        "address": "建设北大街223号中浩第一商务3层304室",
        "province": "河北省",
        "city": "石家庄市",
        "area": "长安区",
        "street_id": "81feef97026958512902e158",
        "detail": 1,
        "uid": "81feef97026958512902e158"
      },
      {
        "name": "河北北方环保工程公司",
        "location": {
          "lat": 38.067953,
          "lng": 114.422309
        },
        "address": "三简路39",
        "province": "河北省",
        "city": "石家庄市",
        "area": "桥西区",
        "street_id": "67fc1ef45a15420102294f20",
        "detail": 1,
        "uid": "67fc1ef45a15420102294f20"
      },
      {
        "name": "河北北方管理咨询公司",
        "location": {
          "lat": 38.095715,
          "lng": 114.527723
        },
        "address": "胜利北街309",
        "province": "河北省",
        "city": "石家庄市",
        "area": "长安区",
        "street_id": "ea4a3dc996546b2e4e55473b",
        "detail": 1,
        "uid": "ea4a3dc996546b2e4e55473b"
      },
      {
        "name": "河北北方铁塔有限公司",
        "location": {
          "lat": 37.781826,
          "lng": 114.752971
        },
        "address": "安济大道G308",
        "province": "河北省",
        "city": "石家庄市",
        "area": "赵县",
        "detail": 1,
        "uid": "f60a15ed9bae64ecbb17e740"
      },
      {
        "name": "河北北方国立律师事务所",
        "location": {
          "lat": 38.051318,
          "lng": 114.519
        },
        "address": "建设北大街1号5层",
        "province": "河北省",
        "city": "石家庄市",
        "area": "长安区",
        "street_id": "9a73ca788a3f1ffa1fe9993e",
        "detail": 1,
        "uid": "9a73ca788a3f1ffa1fe9993e"
      }
    ]
  },
  {
    "schoolId": "10092",
    "schoolName": "河北北方学院",
    "place": "西校区",
    "info": [
      {
        "name": "河北北方学院(西校区)",
        "location": {
          "lat": 40.775157,
          "lng": 114.885504
        },
        "address": "河北省张家口市桥东区钻石南路11号",
        "province": "河北省",
        "city": "张家口市",
        "area": "桥东区",
        "street_id": "355bc6435d0c145d931fc9f4",
        "telephone": "(0313)4029183",
        "detail": 1,
        "uid": "355bc6435d0c145d931fc9f4"
      },
      {
        "name": "河北北方学院西校区(南门)",
        "location": {
          "lat": 40.773481,
          "lng": 114.884702
        },
        "address": "长城西大街",
        "province": "河北省",
        "city": "张家口市",
        "area": "桥东区",
        "street_id": "c981d489a7cf537317b54bc2",
        "detail": 1,
        "uid": "c981d489a7cf537317b54bc2"
      },
      {
        "name": "河北北方学院-东门",
        "location": {
          "lat": 40.776797,
          "lng": 114.887637
        },
        "address": "河北省张家口市桥东区钻石南路11",
        "province": "河北省",
        "city": "张家口市",
        "area": "桥东区",
        "street_id": "b5b9df41ce80d209441a329f",
        "detail": 1,
        "uid": "b5b9df41ce80d209441a329f"
      },
      {
        "name": "河北北方学院西校区-远志楼",
        "location": {
          "lat": 40.775869,
          "lng": 114.886704
        },
        "address": "老鸦庄镇高新区钻石南路11号",
        "province": "河北省",
        "city": "张家口市",
        "area": "桥东区",
        "street_id": "1e6931bc76e21c4757bfff82",
        "detail": 1,
        "uid": "1e6931bc76e21c4757bfff82"
      },
      {
        "name": "河北北方学院西校区-四海楼",
        "location": {
          "lat": 40.776151,
          "lng": 114.886998
        },
        "address": "钻石南路11号",
        "province": "河北省",
        "city": "张家口市",
        "area": "桥东区",
        "street_id": "c82d83c55b45bdefd13ce38e",
        "detail": 1,
        "uid": "c82d83c55b45bdefd13ce38e"
      },
      {
        "name": "河北北方学院-科技大楼",
        "location": {
          "lat": 40.774024,
          "lng": 114.885664
        },
        "address": "河北省张家口市桥东区钻石南路11号河北北方学院",
        "province": "河北省",
        "city": "张家口市",
        "area": "桥东区",
        "street_id": "5d9c3e819145cfcb882fb517",
        "detail": 1,
        "uid": "5d9c3e819145cfcb882fb517"
      },
      {
        "name": "河北北方学院-弘正大楼",
        "location": {
          "lat": 40.774037,
          "lng": 114.883641
        },
        "address": "老鸦庄镇钻石南路11号",
        "province": "河北省",
        "city": "张家口市",
        "area": "桥东区",
        "street_id": "b8b15f487dd4b9bad72ce28c",
        "detail": 1,
        "uid": "b8b15f487dd4b9bad72ce28c"
      },
      {
        "name": "河北北方学院西校区宿舍楼-3号楼",
        "location": {
          "lat": 40.775447,
          "lng": 114.883255
        },
        "address": "张家口市桥东区钻石南路11号",
        "province": "河北省",
        "city": "张家口市",
        "area": "桥东区",
        "detail": 1,
        "uid": "cf66b24f2925407572210b36"
      },
      {
        "name": "河北北方学院西校区学生公寓-5号楼",
        "location": {
          "lat": 40.77641,
          "lng": 114.88305
        },
        "address": "南站街道钻石南路11号",
        "province": "河北省",
        "city": "张家口市",
        "area": "桥东区",
        "street_id": "89eaadb1ddb8699d3517dc13",
        "detail": 1,
        "uid": "89eaadb1ddb8699d3517dc13"
      },
      {
        "name": "河北北方学院西校区学生公寓-4号楼",
        "location": {
          "lat": 40.776075,
          "lng": 114.882755
        },
        "address": "南站街道钻石南路11号",
        "province": "河北省",
        "city": "张家口市",
        "area": "桥东区",
        "street_id": "54bc5af0d28c0f000482c25b",
        "detail": 1,
        "uid": "54bc5af0d28c0f000482c25b"
      }
    ]
  },
  {
    "schoolId": "10092",
    "schoolName": "河北北方学院",
    "place": "南校区",
    "info": [
      {
        "name": "河北北方学院(南校区)",
        "location": {
          "lat": 40.674636,
          "lng": 114.931481
        },
        "address": "张家口市宣化区宣化沙岭子站南450米路西",
        "province": "河北省",
        "city": "张家口市",
        "area": "桥西区",
        "detail": 1,
        "uid": "161a0ed2ea4b1d505cd4fe46"
      },
      {
        "name": "河北北方学院南校区-东门",
        "location": {
          "lat": 40.674984,
          "lng": 114.932775
        },
        "address": "河北省张家口市桥西区京藏高速辅路",
        "province": "河北省",
        "city": "张家口市",
        "area": "桥西区",
        "detail": 1,
        "uid": "ff633c40d51c7f6deb12e416"
      },
      {
        "name": "河北北方学院南校区-北门",
        "location": {
          "lat": 40.678513,
          "lng": 114.931436
        },
        "address": "二里半村沙岭子站附近",
        "province": "河北省",
        "city": "张家口市",
        "area": "桥西区",
        "detail": 1,
        "uid": "05861c2f4c81037c9c09f7e4"
      },
      {
        "name": "北方学院南校区",
        "location": {
          "lat": 40.679456,
          "lng": 114.928321
        },
        "address": "301路",
        "province": "河北省",
        "city": "张家口市",
        "area": "市宣化县",
        "detail": 0,
        "uid": "56cc569a23b8757a61685825"
      },
      {
        "name": "河北北方学院南校区-行政楼",
        "location": {
          "lat": 40.675352,
          "lng": 114.93201
        },
        "address": "沙岭子镇二里半村",
        "province": "河北省",
        "city": "张家口市",
        "area": "宣化区",
        "detail": 1,
        "uid": "e9f64e9ed44d2785bbbd6308"
      },
      {
        "name": "河北北方学院南校区-图书馆",
        "location": {
          "lat": 40.675176,
          "lng": 114.931069
        },
        "address": "沙岭子镇二里半村",
        "province": "河北省",
        "city": "张家口市",
        "area": "桥西区",
        "detail": 1,
        "uid": "7b95e45bc44d49f3e31103a1"
      },
      {
        "name": "河北北方学院南校区-3号公寓",
        "location": {
          "lat": 40.676145,
          "lng": 114.93123
        },
        "address": "张家口市桥西区河北北方学院南校区附近",
        "province": "河北省",
        "city": "张家口市",
        "area": "桥西区",
        "detail": 1,
        "uid": "806dffa00a412c246140a900"
      },
      {
        "name": "河北北方学院南校区4号公寓",
        "location": {
          "lat": 40.675844,
          "lng": 114.929971
        },
        "address": "张家口市桥西区沙岭子镇二里半村",
        "province": "河北省",
        "city": "张家口市",
        "area": "桥西区",
        "detail": 1,
        "uid": "e52eaf31ae8321f9a2a934cf"
      },
      {
        "name": "河北北方学院南校区5号公寓",
        "location": {
          "lat": 40.675581,
          "lng": 114.930113
        },
        "address": "沙岭子镇二里半村河北北方学院南校区",
        "province": "河北省",
        "city": "张家口市",
        "area": "桥西区",
        "detail": 1,
        "uid": "fcea7e59f70f189c1029358c"
      },
      {
        "name": "河北北方学院南校区2号公寓",
        "location": {
          "lat": 40.678545,
          "lng": 114.930996
        },
        "address": "沙岭子镇二里丰村沙岭子站附近",
        "province": "河北省",
        "city": "张家口市",
        "area": "桥西区",
        "detail": 1,
        "uid": "ac05d1be9cd97cdef32d83f2"
      }
    ]
  },
  {
    "schoolId": "10093",
    "schoolName": "承德医学院",
    "place": "校本部",
    "info": []
  },
  {
    "schoolId": "10096",
    "schoolName": "保定学院",
    "place": "校本部",
    "info": []
  },
  {
    "schoolId": "10098",
    "schoolName": "河北民族师范学院",
    "place": "校本部",
    "info": [
      {
        "name": "河北师大附属民族学院",
        "location": {
          "lat": 38.017412,
          "lng": 114.464686
        },
        "address": "河北省石家庄市桥西区红旗大街356号",
        "province": "河北省",
        "city": "石家庄市",
        "area": "桥西区",
        "street_id": "e96b44209b33ab5982288a6f",
        "telephone": "(0311)83812051",
        "detail": 1,
        "uid": "e96b44209b33ab5982288a6f"
      },
      {
        "name": "河北师范大学附属民族学院-5号楼",
        "location": {
          "lat": 38.01744,
          "lng": 114.463149
        },
        "address": "河北省石家庄市桥西区红旗河北师范大学附属民族学院5号楼",
        "province": "河北省",
        "city": "石家庄市",
        "area": "桥西区",
        "street_id": "204d612d30ecb65bc0364483",
        "detail": 1,
        "uid": "204d612d30ecb65bc0364483"
      },
      {
        "name": "河北师范大学附属民族学院-东门",
        "location": {
          "lat": 38.017474,
          "lng": 114.465313
        },
        "address": "红旗大街356号",
        "province": "河北省",
        "city": "石家庄市",
        "area": "桥西区",
        "street_id": "f85ab3a10ce021c6f4eafc31",
        "detail": 1,
        "uid": "f85ab3a10ce021c6f4eafc31"
      },
      {
        "name": "河北师大附属民族学院-学生餐厅2",
        "location": {
          "lat": 38.017412,
          "lng": 114.461849
        },
        "address": "河北师范大学附属民族学院内",
        "province": "河北省",
        "city": "石家庄市",
        "area": "桥西区",
        "street_id": "83cb1f5d3d195e06c42ba110",
        "detail": 1,
        "uid": "83cb1f5d3d195e06c42ba110"
      },
      {
        "name": "停车场",
        "location": {
          "lat": 38.017934,
          "lng": 114.465618
        },
        "address": "河北师范大学附属民族学院附近",
        "province": "河北省",
        "city": "石家庄市",
        "area": "桥西区",
        "street_id": "6eff9a68a859310743e192f5",
        "detail": 1,
        "uid": "6eff9a68a859310743e192f5"
      },
      {
        "name": "珊瑚海网吧",
        "location": {
          "lat": 38.018051,
          "lng": 114.465472
        },
        "address": "河北省石家庄市桥西区河北师范大学附属民族学院附近",
        "province": "河北省",
        "city": "石家庄市",
        "area": "桥西区",
        "street_id": "70e4d91becc0b96f250bd022",
        "detail": 1,
        "uid": "70e4d91becc0b96f250bd022"
      },
      {
        "name": "河北省民俗博物馆",
        "location": {
          "lat": 38.034666,
          "lng": 114.535376
        },
        "address": "河北省石家庄市裕华区育才街181号",
        "province": "河北省",
        "city": "石家庄市",
        "area": "裕华区",
        "street_id": "eec0a34575078736d8d8919d",
        "telephone": "(0311)85814700,(0311)85814487",
        "detail": 1,
        "uid": "eec0a34575078736d8d8919d"
      },
      {
        "name": "河北师大附属民族学院-行政楼",
        "location": {
          "lat": 38.01777,
          "lng": 114.463172
        },
        "address": "红旗大街356号",
        "province": "河北省",
        "city": "石家庄市",
        "area": "桥西区",
        "detail": 1,
        "uid": "f7904010a8ce42811d580058"
      },
      {
        "name": "河北师大附属民族学院-体育馆",
        "location": {
          "lat": 38.017788,
          "lng": 114.462814
        },
        "address": "红旗大街356号",
        "province": "河北省",
        "city": "石家庄市",
        "area": "桥西区",
        "street_id": "ebd8a661d824863bc4f50dc8",
        "detail": 1,
        "uid": "ebd8a661d824863bc4f50dc8"
      },
      {
        "name": "河北师大附属民族学院-综合教学楼",
        "location": {
          "lat": 38.01809,
          "lng": 114.463012
        },
        "address": "红旗大街356号",
        "province": "河北省",
        "city": "石家庄市",
        "area": "桥西区",
        "detail": 1,
        "uid": "70fe47c0027146ec6fa3cc54"
      }
    ]
  },
  {
    "schoolId": "10099",
    "schoolName": "唐山师范学院",
    "place": "校本部",
    "info": [
      {
        "name": "唐山师范学院(大学道校区)",
        "location": {
          "lat": 39.679478,
          "lng": 118.180051
        },
        "address": "河北省唐山市路北区建设北路156号",
        "province": "河北省",
        "city": "唐山市",
        "area": "路北区",
        "street_id": "aa2ae9abed5b58ac8505bf98",
        "telephone": "(0315)3863092",
        "detail": 1,
        "uid": "c67cf4b73db3f38749fd3f06"
      },
      {
        "name": "唐山师范学院(学院路校区)",
        "location": {
          "lat": 39.642382,
          "lng": 118.166221
        },
        "address": "路北区学院路41号",
        "province": "河北省",
        "city": "唐山市",
        "area": "路北区",
        "street_id": "c165340510b23604aa175aba",
        "detail": 1,
        "uid": "c165340510b23604aa175aba"
      },
      {
        "name": "唐山师范学院(玉田分校)",
        "location": {
          "lat": 39.894596,
          "lng": 117.746366
        },
        "address": "河北省唐山市玉田县兴玉路350号",
        "province": "河北省",
        "city": "唐山市",
        "area": "玉田县",
        "street_id": "a5ef680f1e7cc9a9b9df8f1c",
        "telephone": "(0315)6113914",
        "detail": 1,
        "uid": "a5ef680f1e7cc9a9b9df8f1c"
      },
      {
        "name": "唐山师范学院大学道校区-明德公寓",
        "location": {
          "lat": 39.682927,
          "lng": 118.177821
        },
        "address": "建设北路156号",
        "province": "河北省",
        "city": "唐山市",
        "area": "路北区",
        "street_id": "6124255cc759d3c69868b4bc",
        "detail": 1,
        "uid": "6124255cc759d3c69868b4bc"
      },
      {
        "name": "唐山师范学院-教育学院",
        "location": {
          "lat": 39.642382,
          "lng": 118.164925
        },
        "address": "学院路41号",
        "province": "河北省",
        "city": "唐山市",
        "area": "路北区",
        "street_id": "a7ec8924ac3fbb622db96d98",
        "detail": 1,
        "uid": "a7ec8924ac3fbb622db96d98"
      },
      {
        "name": "唐山师范学院玉田分校-玉田极光中学",
        "location": {
          "lat": 39.893025,
          "lng": 117.745497
        },
        "address": "城西大街镇中巷",
        "province": "河北省",
        "city": "唐山市",
        "area": "玉田县",
        "street_id": "a1d4b7e4b3566d6416764395",
        "detail": 1,
        "uid": "a1d4b7e4b3566d6416764395"
      },
      {
        "name": "唐山师范学院-浴池",
        "location": {
          "lat": 39.67787,
          "lng": 118.177224
        },
        "address": "华岩北路与龙富南道交叉口东北100米",
        "province": "河北省",
        "city": "唐山市",
        "area": "路北区",
        "street_id": "36253b462618d69cabf0cd20",
        "detail": 1,
        "uid": "36253b462618d69cabf0cd20"
      },
      {
        "name": "唐山师范学院-东门",
        "location": {
          "lat": 39.679124,
          "lng": 118.184012
        },
        "address": "建设北路156号",
        "province": "河北省",
        "city": "唐山市",
        "area": "路北区",
        "street_id": "27e1e0a1e5a151881ef74d13",
        "detail": 1,
        "uid": "27e1e0a1e5a151881ef74d13"
      },
      {
        "name": "唐山师范学院-北门",
        "location": {
          "lat": 39.681633,
          "lng": 118.181604
        },
        "address": "建设北路156号",
        "province": "河北省",
        "city": "唐山市",
        "area": "路北区",
        "street_id": "67c732abdac4168549fc8d16",
        "detail": 1,
        "uid": "67c732abdac4168549fc8d16"
      },
      {
        "name": "唐山师范学院-2号楼",
        "location": {
          "lat": 39.679745,
          "lng": 118.18217
        },
        "address": "高新技术产业开发区建设北路156号",
        "province": "河北省",
        "city": "唐山市",
        "area": "路北区",
        "street_id": "12f92a522a665b0ffea7782a",
        "detail": 1,
        "uid": "5ee718c14260e2de38e4a603"
      }
    ]
  },
  {
    "schoolId": "10100",
    "schoolName": "廊坊师范学院",
    "place": "校本部",
    "info": [
      {
        "name": "廊坊师范学院",
        "location": {
          "lat": 39.529734,
          "lng": 116.681698
        },
        "address": "河北省廊坊市安次区爱民西道100号",
        "province": "河北省",
        "city": "廊坊市",
        "area": "安次区",
        "street_id": "7c1371eea79cb6bffbf0cb38",
        "telephone": "(0316)2188265",
        "detail": 1,
        "uid": "7c1371eea79cb6bffbf0cb38"
      },
      {
        "name": "廊坊师范学院(西校区)",
        "location": {
          "lat": 39.427588,
          "lng": 116.440861
        },
        "address": "河北省廊坊市固安县爱民西道1号",
        "province": "河北省",
        "city": "廊坊市",
        "area": "固安县",
        "detail": 1,
        "uid": "be24d20f6561d50c00ec0143"
      },
      {
        "name": "廊坊师范学院-东南门",
        "location": {
          "lat": 39.531212,
          "lng": 116.6802
        },
        "address": "爱民西道100号",
        "province": "河北省",
        "city": "廊坊市",
        "area": "安次区",
        "street_id": "fc62bea65bccf81481288a56",
        "detail": 1,
        "uid": "fc62bea65bccf81481288a56"
      },
      {
        "name": "师范学院食堂",
        "location": {
          "lat": 39.530787,
          "lng": 116.679628
        },
        "address": "爱民西道100号",
        "province": "河北省",
        "city": "廊坊市",
        "area": "安次区",
        "street_id": "f3635235d0c5d0cf725e80db",
        "detail": 1,
        "uid": "f3635235d0c5d0cf725e80db"
      },
      {
        "name": "廊坊师范学院东院",
        "location": {
          "lat": 39.530875,
          "lng": 116.685937
        },
        "address": "安次区爱民西道100号",
        "province": "河北省",
        "city": "廊坊市",
        "area": "安次区",
        "street_id": "a7c56ee0c862aab2a3acc45d",
        "detail": 1,
        "uid": "a7c56ee0c862aab2a3acc45d"
      },
      {
        "name": "易佰廊坊师范学院店",
        "location": {
          "lat": 39.529275,
          "lng": 116.68773
        },
        "address": "永兴路10号靠近中国建设银行(爱民西道支行)",
        "province": "河北省",
        "city": "廊坊市",
        "area": "安次区",
        "street_id": "5a8ef39e0a7bbef1774ff190",
        "telephone": "(0316)2651777",
        "detail": 1,
        "uid": "e3ed36113e285c12e8e582f1"
      },
      {
        "name": "廊坊师范学院-文学院",
        "location": {
          "lat": 39.531676,
          "lng": 116.67924
        },
        "address": "廊坊市安次区爱民西道100号",
        "province": "河北省",
        "city": "廊坊市",
        "area": "安次区",
        "street_id": "8d4b7b49291ddd93eaf8538b",
        "detail": 1,
        "uid": "8d4b7b49291ddd93eaf8538b"
      },
      {
        "name": "廊坊师范学院-学程教育",
        "location": {
          "lat": 39.529088,
          "lng": 116.686575
        },
        "address": "爱民西道元辰超市东50米",
        "province": "河北省",
        "city": "廊坊市",
        "area": "安次区",
        "street_id": "8b1522a5627a8d52f82d6144",
        "detail": 1,
        "uid": "8b1522a5627a8d52f82d6144"
      },
      {
        "name": "廊坊师范学院-体育学院",
        "location": {
          "lat": 39.530313,
          "lng": 116.679587
        },
        "address": "爱民西道100号",
        "province": "河北省",
        "city": "廊坊市",
        "area": "安次区",
        "street_id": "e0d61129b69d264a28b97ce2",
        "detail": 1,
        "uid": "e0d61129b69d264a28b97ce2"
      },
      {
        "name": "廊坊师范学院-外国语学院",
        "location": {
          "lat": 39.531017,
          "lng": 116.679693
        },
        "address": "爱民西道100号",
        "province": "河北省",
        "city": "廊坊市",
        "area": "安次区",
        "street_id": "aebc9da832290ca3b320a807",
        "detail": 1,
        "uid": "aebc9da832290ca3b320a807"
      }
    ]
  },
  {
    "schoolId": "10101",
    "schoolName": "衡水学院",
    "place": "校本部",
    "info": [
      {
        "name": "衡水学院实习就业基地",
        "location": {
          "lat": 38.013614,
          "lng": 114.467743
        },
        "address": "晨光路与通慧路交叉口北100米",
        "province": "河北省",
        "city": "石家庄市",
        "area": "桥西区",
        "street_id": "496f492d8d282febf8f0cb83",
        "detail": 1,
        "uid": "496f492d8d282febf8f0cb83"
      },
      {
        "name": "衡水学院成人高等教育石家庄函授点",
        "location": {
          "lat": 38.007273,
          "lng": 114.466814
        },
        "address": "红旗大街581号古韵文化广场B座5层",
        "province": "河北省",
        "city": "石家庄市",
        "area": "桥西区",
        "street_id": "bf734131303394ec22f017b9",
        "detail": 1,
        "uid": "bf734131303394ec22f017b9"
      }
    ]
  },
  {
    "schoolId": "10102",
    "schoolName": "石家庄学院",
    "place": "校本部",
    "info": [
      {
        "name": "石家庄学院",
        "location": {
          "lat": 38.025509,
          "lng": 114.60673
        },
        "address": "珠峰大街288号(近天山花园)",
        "province": "河北省",
        "city": "石家庄市",
        "area": "裕华区",
        "street_id": "d271057c0a3a02c049fc8d03",
        "telephone": "(0311)66617025",
        "detail": 1,
        "uid": "d271057c0a3a02c049fc8d03"
      },
      {
        "name": "石家庄学院(北校区)",
        "location": {
          "lat": 38.041201,
          "lng": 114.611489
        },
        "address": "河北省石家庄市裕华区长江大道6号",
        "province": "河北省",
        "city": "石家庄市",
        "area": "裕华区",
        "street_id": "07f3c8b5bc7938606240a908",
        "detail": 1,
        "uid": "07f3c8b5bc7938606240a908"
      },
      {
        "name": "石家庄学院",
        "location": {
          "lat": 38.026544,
          "lng": 114.60936
        },
        "address": "80路;116路;快32路",
        "province": "河北省",
        "city": "石家庄市",
        "area": "市裕华区",
        "detail": 0,
        "uid": "0da676a56b3d6c66eaf85346"
      },
      {
        "name": "石家庄学院-南门",
        "location": {
          "lat": 38.039192,
          "lng": 114.610562
        },
        "address": "长江大道6号",
        "province": "河北省",
        "city": "石家庄市",
        "area": "裕华区",
        "street_id": "dbf4d6ee345e542a6fa3cc6a",
        "detail": 1,
        "uid": "dbf4d6ee345e542a6fa3cc6a"
      },
      {
        "name": "石家庄学院-音乐楼",
        "location": {
          "lat": 38.04082,
          "lng": 114.609415
        },
        "address": "长江大道6号石家庄学院北校区音乐楼",
        "province": "河北省",
        "city": "石家庄市",
        "area": "裕华区",
        "street_id": "0d828a11b2b718316fc02cca",
        "detail": 1,
        "uid": "0d828a11b2b718316fc02cca"
      },
      {
        "name": "石家庄学院-武术馆",
        "location": {
          "lat": 38.041497,
          "lng": 114.611795
        },
        "address": "长江大道6",
        "province": "河北省",
        "city": "石家庄市",
        "area": "裕华区",
        "street_id": "fb76c90465344199f4eafc45",
        "detail": 1,
        "uid": "fb76c90465344199f4eafc45"
      },
      {
        "name": "石家庄学院-体育楼",
        "location": {
          "lat": 38.041286,
          "lng": 114.611984
        },
        "address": "长江大道6号石家庄学院",
        "province": "河北省",
        "city": "石家庄市",
        "area": "裕华区",
        "street_id": "b7f1b641c4a72ec0d42ce25e",
        "detail": 1,
        "uid": "b7f1b641c4a72ec0d42ce25e"
      },
      {
        "name": "石家庄学院-美术馆",
        "location": {
          "lat": 38.027928,
          "lng": 114.604651
        },
        "address": "河北省石家庄市裕华区长江大道6号石家庄学院内",
        "province": "河北省",
        "city": "石家庄市",
        "area": "裕华区",
        "street_id": "7bc6df4d87ea8afe0f0a702f",
        "detail": 1,
        "uid": "7bc6df4d87ea8afe0f0a702f"
      },
      {
        "name": "石家庄学院-图书馆",
        "location": {
          "lat": 38.042356,
          "lng": 114.610503
        },
        "address": "河北省石家庄市裕华区长江大道6号石家庄学院北校区内",
        "province": "河北省",
        "city": "石家庄市",
        "area": "裕华区",
        "street_id": "39d43f826ca9d186a8059d6b",
        "telephone": "(0311)85962404",
        "detail": 1,
        "uid": "39d43f826ca9d186a8059d6b"
      },
      {
        "name": "石家庄学院-游泳馆",
        "location": {
          "lat": 38.025388,
          "lng": 114.608515
        },
        "address": "石家庄市裕华区园丁路与求新路交叉口东100米",
        "province": "河北省",
        "city": "石家庄市",
        "area": "裕华区",
        "detail": 1,
        "uid": "144c76e0543d1da15d17c3fc"
      }
    ]
  },
  {
    "schoolId": "10103",
    "schoolName": "邯郸学院",
    "place": "本部",
    "info": []
  },
  {
    "schoolId": "10104",
    "schoolName": "邢台学院",
    "place": "校本部",
    "info": []
  },
  {
    "schoolId": "10105",
    "schoolName": "沧州师范学院",
    "place": "校本部",
    "info": [
      {
        "name": "沧州师范学院",
        "location": {
          "lat": 38.291282,
          "lng": 116.790243
        },
        "address": "河北省沧州市沧县青海南大道西50米",
        "province": "河北省",
        "city": "沧州市",
        "area": "运河区",
        "street_id": "c43b11720d1e0dc6f5c59c26",
        "telephone": "(0317)2159811",
        "detail": 1,
        "uid": "c43b11720d1e0dc6f5c59c26"
      },
      {
        "name": "沧州师范学院体育场",
        "location": {
          "lat": 38.293038,
          "lng": 116.79376
        },
        "address": "师范学院内",
        "province": "河北省",
        "city": "沧州市",
        "area": "运河区",
        "detail": 0,
        "uid": "5a6a71ab88791b10260bd0b7"
      },
      {
        "name": "沧州师范学院实习基地园",
        "location": {
          "lat": 38.379365,
          "lng": 117.336288
        },
        "address": "府右街东150米",
        "province": "河北省",
        "city": "沧州市",
        "area": "黄骅市",
        "street_id": "e1a4e2b1555a172c1e58003f",
        "detail": 1,
        "uid": "e1a4e2b1555a172c1e58003f"
      },
      {
        "name": "沧州师范学院体育训练馆",
        "location": {
          "lat": 38.29199,
          "lng": 116.792935
        },
        "address": "南大道西150米",
        "province": "河北省",
        "city": "沧州市",
        "area": "运河区",
        "detail": 1,
        "uid": "4910a49c65e734d68d772708"
      },
      {
        "name": "沧州师范学院-南门",
        "location": {
          "lat": 38.291837,
          "lng": 116.794277
        },
        "address": "河北省沧州市运河区307国道",
        "province": "河北省",
        "city": "沧州市",
        "area": "运河区",
        "street_id": "191660622a06ea1e6ca3cc47",
        "detail": 1,
        "uid": "191660622a06ea1e6ca3cc47"
      },
      {
        "name": "沧州师范学院-安通图书馆",
        "location": {
          "lat": 38.290025,
          "lng": 116.789921
        },
        "address": "河北省沧州市运河区学院西路16号",
        "province": "河北省",
        "city": "沧州市",
        "area": "运河区",
        "telephone": "(0317)2159817",
        "detail": 1,
        "uid": "3ab4355d8a7290c20c0a7086"
      },
      {
        "name": "沧州师范学院-计算机中心",
        "location": {
          "lat": 38.289888,
          "lng": 116.792105
        },
        "address": "师范学院",
        "province": "河北省",
        "city": "沧州市",
        "area": "运河区",
        "detail": 0,
        "uid": "1c654513e8c567b0cf06a46b"
      },
      {
        "name": "沧州师范学院学术报告厅",
        "location": {
          "lat": 38.290202,
          "lng": 116.790312
        },
        "address": "沧州市运河区",
        "province": "河北省",
        "city": "沧州市",
        "area": "运河区",
        "detail": 1,
        "uid": "9a1b2e625d8ef0baf01937b1"
      },
      {
        "name": "师范学院",
        "location": {
          "lat": 38.289821,
          "lng": 116.794783
        },
        "address": "18路;19路",
        "province": "河北省",
        "city": "沧州市",
        "area": "运河区",
        "detail": 0,
        "uid": "a6fc296981fd7ab3cac3dbf9"
      },
      {
        "name": "中国移动(师范学院店)",
        "location": {
          "lat": 38.293277,
          "lng": 116.787666
        },
        "address": "高教新区沧州师范专科学校",
        "province": "河北省",
        "city": "沧州市",
        "area": "运河区",
        "detail": 1,
        "uid": "21253bf055c7c56e76e5b68f"
      }
    ]
  },
  {
    "schoolId": "10107",
    "schoolName": "石家庄铁道大学",
    "place": "校本部",
    "info": [
      {
        "name": "石家庄铁道大学四方学院",
        "location": {
          "lat": 37.889637,
          "lng": 114.412919
        },
        "address": "石家庄市装院路甲一号",
        "province": "河北省",
        "city": "石家庄市",
        "area": "元氏县",
        "detail": 1,
        "uid": "11762e604deb7070901fc9f3"
      },
      {
        "name": "石家庄铁道大学实习基地",
        "location": {
          "lat": 38.394907,
          "lng": 114.525822
        },
        "address": "科技大街西50米",
        "province": "河北省",
        "city": "石家庄市",
        "area": "行唐县",
        "detail": 1,
        "uid": "2a13a6b4f5d8fa26a11de91b"
      },
      {
        "name": "石家庄铁道大学实习基地-北门",
        "location": {
          "lat": 38.395079,
          "lng": 114.525957
        },
        "address": "河北省石家庄市行唐县科技大街石家庄铁道大学实习基地",
        "province": "河北省",
        "city": "石家庄市",
        "area": "行唐县",
        "detail": 1,
        "uid": "fe12ec3336c559d540e19226"
      },
      {
        "name": "石家庄铁道大学四方学院-西门",
        "location": {
          "lat": 38.059288,
          "lng": 114.359996
        },
        "address": "石柏南大街西200米",
        "province": "河北省",
        "city": "石家庄市",
        "area": "鹿泉区",
        "detail": 1,
        "uid": "352283b3e87047f72bd7ab52"
      },
      {
        "name": "石家庄铁道大学研究生专业实践基地",
        "location": {
          "lat": 38.024645,
          "lng": 114.613598
        },
        "address": "河北省石家庄市裕华区天山大街",
        "province": "河北省",
        "city": "石家庄市",
        "area": "裕华区",
        "street_id": "9f23ad0d11ed5e5cf03cbaeb",
        "detail": 1,
        "uid": "9f23ad0d11ed5e5cf03cbaeb"
      }
    ]
  },
  {
    "schoolId": "11236",
    "schoolName": "河北体育学院",
    "place": "校本部",
    "info": [
      {
        "name": "河北体育学院",
        "location": {
          "lat": 38.12839,
          "lng": 114.507278
        },
        "address": "河北省石家庄市长安区学府路82号",
        "province": "河北省",
        "city": "石家庄市",
        "area": "长安区",
        "street_id": "89fd4ea3b88c8647e5e96567",
        "detail": 1,
        "uid": "89fd4ea3b88c8647e5e96567"
      },
      {
        "name": "河北体育学院(东校区)",
        "location": {
          "lat": 38.046769,
          "lng": 114.544357
        },
        "address": "中山东路372",
        "province": "河北省",
        "city": "石家庄市",
        "area": "长安区",
        "street_id": "a43766d503281b71ddee8b43",
        "detail": 1,
        "uid": "a43766d503281b71ddee8b43"
      },
      {
        "name": "河北体育学院-体育艺术系",
        "location": {
          "lat": 38.12891,
          "lng": 114.508537
        },
        "address": "学府路82号",
        "province": "河北省",
        "city": "石家庄市",
        "area": "长安区",
        "street_id": "805ea14f4904cd8e95ca0799",
        "detail": 1,
        "uid": "805ea14f4904cd8e95ca0799"
      },
      {
        "name": "河北师范大学体育学院",
        "location": {
          "lat": 38.000731,
          "lng": 114.521024
        },
        "address": "南二环东路20号",
        "province": "河北省",
        "city": "石家庄市",
        "area": "裕华区",
        "detail": 1,
        "uid": "f87f3c396918c0c1ad080fc5"
      },
      {
        "name": "河北师范大学体育学院",
        "location": {
          "lat": 38.003866,
          "lng": 114.531126
        },
        "address": "河北省石家庄市裕华区南二环东路20号河北师范大学新校区内",
        "province": "河北省",
        "city": "石家庄市",
        "area": "裕华区",
        "detail": 1,
        "uid": "25d0f5f7757d48abf02d8377"
      },
      {
        "name": "河北师范大学体育学院",
        "location": {
          "lat": 38.041236,
          "lng": 114.536993
        },
        "address": "河北省石家庄市裕华区裕华东路106-10",
        "province": "河北省",
        "city": "石家庄市",
        "area": "裕华区",
        "street_id": "cdc14bd10b50f35e626858a1",
        "detail": 1,
        "uid": "cdc14bd10b50f35e626858a1"
      },
      {
        "name": "河北省天天向上体育艺术学院分院",
        "location": {
          "lat": 37.99514,
          "lng": 114.474363
        },
        "address": "永泰大街与泰山路交叉口东200米",
        "province": "河北省",
        "city": "石家庄市",
        "area": "桥西区",
        "street_id": "2f0a0c7c8a1a3dd0af045774",
        "detail": 1,
        "uid": "2f0a0c7c8a1a3dd0af045774"
      },
      {
        "name": "河北师范大学体育学院-东门",
        "location": {
          "lat": 38.003826,
          "lng": 114.532635
        },
        "address": "河北省石家庄市裕华区南二环东路42号附近",
        "province": "河北省",
        "city": "石家庄市",
        "area": "裕华区",
        "detail": 1,
        "uid": "ebc16fd01f6a26efc26c1463"
      },
      {
        "name": "河北体育学院-东北门",
        "location": {
          "lat": 38.130104,
          "lng": 114.508261
        },
        "address": "学府路82号",
        "province": "河北省",
        "city": "石家庄市",
        "area": "长安区",
        "street_id": "b4a14b7b55309bbef4b91618",
        "detail": 1,
        "uid": "b4a14b7b55309bbef4b91618"
      },
      {
        "name": "河北体育学院-武术馆",
        "location": {
          "lat": 38.128148,
          "lng": 114.504991
        },
        "address": "学府路8号河北体育学院内部",
        "province": "河北省",
        "city": "石家庄市",
        "area": "长安区",
        "street_id": "d7ded04374be28fea20464f5",
        "detail": 1,
        "uid": "d7ded04374be28fea20464f5"
      }
    ]
  },
  {
    "schoolId": "11420",
    "schoolName": "河北金融学院",
    "place": "校本部",
    "info": [
      {
        "name": "逸夫教学楼",
        "location": {
          "lat": 38.877967,
          "lng": 115.521002
        },
        "address": "五四东路180号河北大学校本部",
        "province": "河北省",
        "city": "保定市",
        "area": "莲池区",
        "street_id": "83eac206893763c92cb96d67",
        "detail": 1,
        "uid": "304739e316878fd6b6f42fb0"
      }
    ]
  },
  {
    "schoolId": "11629",
    "schoolName": "北华航天工业学院",
    "place": "校本部",
    "info": []
  },
  {
    "schoolId": "11832",
    "schoolName": "河北经贸大学",
    "place": "校本部",
    "info": [
      {
        "name": "河北经贸大学",
        "location": {
          "lat": 38.141288,
          "lng": 114.499116
        },
        "address": "河北省石家庄市新华区学府路47号",
        "province": "河北省",
        "city": "石家庄市",
        "area": "新华区",
        "telephone": "(0311)87655580",
        "detail": 1,
        "uid": "917e98092f9aa6e32d473316"
      },
      {
        "name": "河北经贸大学",
        "location": {
          "lat": 38.140268,
          "lng": 114.494396
        },
        "address": "112路;171路;井陉-正定;正定-井陉",
        "province": "河北省",
        "city": "石家庄市",
        "area": "市新华区",
        "detail": 0,
        "uid": "05a8c95c01e6ffba260bd0aa"
      },
      {
        "name": "河北经贸大学",
        "location": {
          "lat": 38.014374,
          "lng": 114.46381
        },
        "address": "河北省石家庄市桥西区新石南路238-1号河北经贸大学",
        "province": "河北省",
        "city": "石家庄市",
        "area": "桥西区",
        "street_id": "bb905430e096d04f0bf5eb9b",
        "detail": 1,
        "uid": "bb905430e096d04f0bf5eb9b"
      },
      {
        "name": "河北经贸大学-西门",
        "location": {
          "lat": 38.140114,
          "lng": 114.495128
        },
        "address": "河北经贸大学",
        "province": "河北省",
        "city": "石家庄市",
        "area": "新华区",
        "street_id": "a3f21eeeebc2b0382fb17e18",
        "detail": 1,
        "uid": "a3f21eeeebc2b0382fb17e18"
      },
      {
        "name": "河北经贸大学(东校区)",
        "location": {
          "lat": 38.038353,
          "lng": 114.526097
        },
        "address": "河北省石家庄市裕华区槐北路95号",
        "province": "河北省",
        "city": "石家庄市",
        "area": "裕华区",
        "street_id": "40cc8395d87b887cb35c6a15",
        "detail": 1,
        "uid": "40cc8395d87b887cb35c6a15"
      },
      {
        "name": "河北经贸大学(体育教学部)",
        "location": {
          "lat": 38.140703,
          "lng": 114.49607
        },
        "address": "河北省石家庄市新华区学府路47号",
        "province": "河北省",
        "city": "石家庄市",
        "area": "新华区",
        "street_id": "367907ec5e90fbd415a190c8",
        "detail": 1,
        "uid": "367907ec5e90fbd415a190c8"
      },
      {
        "name": "河北经贸大学经济管理学院",
        "location": {
          "lat": 38.012633,
          "lng": 114.464129
        },
        "address": "河北省石家庄市红旗大街428号",
        "province": "河北省",
        "city": "石家庄市",
        "area": "桥西区",
        "street_id": "1ce54c66675bc72b364aaeb5",
        "telephone": "(0311)87665152",
        "detail": 1,
        "uid": "1ce54c66675bc72b364aaeb5"
      },
      {
        "name": "英财国际",
        "location": {
          "lat": 38.140984,
          "lng": 114.503629
        },
        "address": "河北省石家庄市新华区学府路47号",
        "province": "河北省",
        "city": "石家庄市",
        "area": "新华区",
        "street_id": "31745bf552826c99593ac868",
        "detail": 1,
        "uid": "31745bf552826c99593ac868"
      },
      {
        "name": "河北经贸大学-学府考研",
        "location": {
          "lat": 38.136275,
          "lng": 114.50161
        },
        "address": "石家庄市新华区经贸大学南门对面",
        "province": "河北省",
        "city": "石家庄市",
        "area": "新华区",
        "street_id": "c82ac38a81926ff8c056ac8a",
        "detail": 1,
        "uid": "c82ac38a81926ff8c056ac8a"
      },
      {
        "name": "第五教学楼",
        "location": {
          "lat": 38.142688,
          "lng": 114.498787
        },
        "address": "学府路47号河北经贸大学",
        "province": "河北省",
        "city": "石家庄市",
        "area": "新华区",
        "detail": 1,
        "uid": "93b896d46f4c5f6488fc06c0"
      }
    ]
  },
  {
    "schoolId": "12784",
    "schoolName": "河北传媒学院",
    "place": "校本部",
    "info": [
      {
        "name": "河北传媒学院",
        "location": {
          "lat": 37.91244,
          "lng": 114.670573
        },
        "address": "河北省石家庄市栾城区兴安大街109号",
        "province": "河北省",
        "city": "石家庄市",
        "area": "栾城区",
        "street_id": "d5130ce8065e0a3e48cc4adb",
        "detail": 1,
        "uid": "d5130ce8065e0a3e48cc4adb"
      },
      {
        "name": "河北传媒学院-西门",
        "location": {
          "lat": 38.10354,
          "lng": 114.432465
        },
        "address": "大安舍村惠安街6号",
        "province": "河北省",
        "city": "石家庄市",
        "area": "新华区",
        "street_id": "59f05bac4ba0a8312b06ce16",
        "detail": 1,
        "uid": "59f05bac4ba0a8312b06ce16"
      },
      {
        "name": "河北传媒学院(栾城校区)-5号楼",
        "location": {
          "lat": 37.912237,
          "lng": 114.669234
        },
        "address": "河北传媒学院(栾城校区)5号楼",
        "province": "河北省",
        "city": "石家庄市",
        "area": "栾城区",
        "street_id": "cd6eb4f8a8765aee28d7abd3",
        "detail": 1,
        "uid": "cd6eb4f8a8765aee28d7abd3"
      },
      {
        "name": "河北传媒学院",
        "location": {
          "lat": 38.100857,
          "lng": 114.436409
        },
        "address": "晋州201路;晋州201路节假日;晋州202路",
        "province": "河北省",
        "city": "石家庄市",
        "area": "市新华区",
        "detail": 0,
        "uid": "4d73c0358ef6cb81157643cb"
      },
      {
        "name": "河北传媒学院(河北传媒学院心理健康中心西北)",
        "location": {
          "lat": 38.102456,
          "lng": 114.435674
        },
        "address": "河北省石家庄市新华区警安路8号",
        "province": "河北省",
        "city": "石家庄市",
        "area": "新华区",
        "street_id": "03b592ed7263699bcac3db89",
        "telephone": "(0311)85100699",
        "detail": 1,
        "uid": "03b592ed7263699bcac3db89"
      },
      {
        "name": "河北传媒学院-教学楼",
        "location": {
          "lat": 38.101652,
          "lng": 114.437036
        },
        "address": "警安路8号河北传媒学院",
        "province": "河北省",
        "city": "石家庄市",
        "area": "新华区",
        "street_id": "562a4e463ea529551129358d",
        "detail": 1,
        "uid": "562a4e463ea529551129358d"
      },
      {
        "name": "大安舍学校",
        "location": {
          "lat": 38.101541,
          "lng": 114.432642
        },
        "address": "警安西路41号",
        "province": "河北省",
        "city": "石家庄市",
        "area": "新华区",
        "street_id": "6913052346e65708725e8039",
        "detail": 1,
        "uid": "6913052346e65708725e8039"
      },
      {
        "name": "河北传媒学院-东门",
        "location": {
          "lat": 38.103819,
          "lng": 114.438022
        },
        "address": "警安路8号",
        "province": "河北省",
        "city": "石家庄市",
        "area": "新华区",
        "street_id": "e4e523d8a57dfd78081cc7ad",
        "detail": 1,
        "uid": "e4e523d8a57dfd78081cc7ad"
      },
      {
        "name": "河北传媒学院-南门",
        "location": {
          "lat": 38.100978,
          "lng": 114.437158
        },
        "address": "石家庄市警安路8号",
        "province": "河北省",
        "city": "石家庄市",
        "area": "新华区",
        "street_id": "cb7d19a6de31106a4c6d4691",
        "detail": 1,
        "uid": "cb7d19a6de31106a4c6d4691"
      },
      {
        "name": "传媒之声广播站",
        "location": {
          "lat": 38.101492,
          "lng": 114.437501
        },
        "address": "石家庄市新华区昌西街与警安路交叉口北100米",
        "province": "河北省",
        "city": "石家庄市",
        "area": "新华区",
        "street_id": "f9805aabb8f2d4742afc4832",
        "detail": 1,
        "uid": "f9805aabb8f2d4742afc4832"
      }
    ]
  },
  {
    "schoolId": "12796",
    "schoolName": "河北工程技术学院",
    "place": "校本部",
    "info": [
      {
        "name": "河北工程技术学院-教学楼",
        "location": {
          "lat": 37.989446,
          "lng": 114.473033
        },
        "address": "宫北路11号",
        "province": "河北省",
        "city": "石家庄市",
        "area": "桥西区",
        "telephone": "(0311)83831598",
        "detail": 1,
        "uid": "4f556e164dee1cbedeee8b64"
      },
      {
        "name": "河北工程技术学院-网球场",
        "location": {
          "lat": 37.990066,
          "lng": 114.476308
        },
        "address": "宫北路11",
        "province": "河北省",
        "city": "石家庄市",
        "area": "桥西区",
        "street_id": "7cd4841059b087283ae4a686",
        "detail": 1,
        "uid": "7cd4841059b087283ae4a686"
      },
      {
        "name": "河北工程技术学院(北校区)-男生公寓",
        "location": {
          "lat": 38.002079,
          "lng": 114.469823
        },
        "address": "河北省石家庄市桥西区汇宁街石家庄法商中等专业学校",
        "province": "河北省",
        "city": "石家庄市",
        "area": "桥西区",
        "street_id": "fb43fef1b7d8fcba2ce67b92",
        "detail": 1,
        "uid": "fb43fef1b7d8fcba2ce67b92"
      },
      {
        "name": "河北工程技术学院教学楼-4栋",
        "location": {
          "lat": 37.990214,
          "lng": 114.47291
        },
        "address": "河北工程技术学院教学楼4栋",
        "province": "河北省",
        "city": "石家庄市",
        "area": "桥西区",
        "street_id": "bef7b0f4ff67a3d8d618b7ea",
        "detail": 1,
        "uid": "bef7b0f4ff67a3d8d618b7ea"
      }
    ]
  },
  {
    "schoolId": "13075",
    "schoolName": "河北美术学院",
    "place": "校本部",
    "info": [
      {
        "name": "河北美术学院",
        "location": {
          "lat": 38.351178,
          "lng": 114.723938
        },
        "address": "河北省石家庄市新乐市空港工业园区北环港路111号",
        "province": "河北省",
        "city": "石家庄市",
        "area": "新乐市",
        "street_id": "5ad9c2ae66094f796b49f3a2",
        "telephone": "(0311)88596153",
        "detail": 1,
        "uid": "5ad9c2ae66094f796b49f3a2"
      },
      {
        "name": "河北美术学院-南区",
        "location": {
          "lat": 38.348517,
          "lng": 114.725139
        },
        "address": "河北省石家庄市新乐市伏羲大街与长杨路交叉口西南200米",
        "province": "河北省",
        "city": "石家庄市",
        "area": "新乐市",
        "street_id": "fae3e74d436590aed718b74c",
        "telephone": "(0311)88594181",
        "detail": 1,
        "uid": "fae3e74d436590aed718b74c"
      },
      {
        "name": "河北艺术学院舞蹈培训基地",
        "location": {
          "lat": 38.183322,
          "lng": 114.986177
        },
        "address": "无极东路42附近",
        "province": "河北省",
        "city": "石家庄市",
        "area": "无极县",
        "street_id": "61ec766d7c0447926168585e",
        "detail": 1,
        "uid": "61ec766d7c0447926168585e"
      },
      {
        "name": "河北美术学院2号宿舍楼",
        "location": {
          "lat": 38.349873,
          "lng": 114.724064
        },
        "address": "河北省石家庄市新乐市长杨路",
        "province": "河北省",
        "city": "石家庄市",
        "area": "新乐市",
        "street_id": "d8a9ce997cfd74a309b93afa",
        "detail": 1,
        "uid": "d8a9ce997cfd74a309b93afa"
      },
      {
        "name": "河北美术学院二号公共教学楼",
        "location": {
          "lat": 38.351443,
          "lng": 114.723718
        },
        "address": "空港工业园区北环港路111号河北美术学院(北区)附近",
        "province": "河北省",
        "city": "石家庄市",
        "area": "新乐市",
        "detail": 1,
        "uid": "0fbd0e3c6daf7048c4f0257f"
      }
    ]
  },
  {
    "schoolId": "13391",
    "schoolName": "河北科技学院",
    "place": "校本部",
    "info": [
      {
        "name": "河北科技学院",
        "location": {
          "lat": 38.819906,
          "lng": 115.499229
        },
        "address": "河北省保定市莲池区南二环1956号",
        "province": "河北省",
        "city": "保定市",
        "area": "莲池区",
        "street_id": "eb47cead0ad93e9316c90581",
        "telephone": "(0312)2123360",
        "detail": 1,
        "uid": "eb47cead0ad93e9316c90581"
      },
      {
        "name": "河北科技学院足球场",
        "location": {
          "lat": 38.819422,
          "lng": 115.498193
        },
        "address": "保定市莲池区南二环1956号河北科技学院附近",
        "province": "河北省",
        "city": "保定市",
        "area": "莲池区",
        "detail": 1,
        "uid": "6375f1a16f7ade176849f325"
      },
      {
        "name": "河北科技学院-西门",
        "location": {
          "lat": 38.819959,
          "lng": 115.49493
        },
        "address": "河北省保定市莲池区市南二环1956号",
        "province": "河北省",
        "city": "保定市",
        "area": "莲池区",
        "detail": 1,
        "uid": "8eb48fa15fadbbdbf32d8372"
      },
      {
        "name": "河北科技学院-东门",
        "location": {
          "lat": 38.819825,
          "lng": 115.503131
        },
        "address": "保定市南二环1956号",
        "province": "河北省",
        "city": "保定市",
        "area": "莲池区",
        "street_id": "fb209714717259e69968b479",
        "detail": 1,
        "uid": "fb209714717259e69968b479"
      },
      {
        "name": "河北科技学院篮球场",
        "location": {
          "lat": 38.819702,
          "lng": 115.495139
        },
        "address": "市南二环路18号附近",
        "province": "河北省",
        "city": "保定市",
        "area": "莲池区",
        "detail": 1,
        "uid": "a59e192d7eb3573f95ca07be"
      },
      {
        "name": "河北科技学院-保定虎振驾校",
        "location": {
          "lat": 38.818924,
          "lng": 115.502803
        },
        "address": "河北省保定市莲池区莲池南大街河北科技学院附近",
        "province": "河北省",
        "city": "保定市",
        "area": "莲池区",
        "street_id": "4499bcfbd11efef60869d952",
        "telephone": "(0312)2195886",
        "detail": 1,
        "uid": "4499bcfbd11efef60869d952"
      },
      {
        "name": "河北科技学院-北门",
        "location": {
          "lat": 38.822281,
          "lng": 115.500914
        },
        "address": "南二环2118",
        "province": "河北省",
        "city": "保定市",
        "area": "莲池区",
        "detail": 1,
        "uid": "d128bc9317476365430245ab"
      },
      {
        "name": "河北科技学院-体育馆",
        "location": {
          "lat": 38.819472,
          "lng": 115.497859
        },
        "address": "南大园乡南二环1956号",
        "province": "河北省",
        "city": "保定市",
        "area": "莲池区",
        "detail": 1,
        "uid": "4b6e097c56b90133aecb669f"
      },
      {
        "name": "河北科技学院-实训基地",
        "location": {
          "lat": 38.818901,
          "lng": 115.496988
        },
        "address": "河北科技学院实训基地",
        "province": "河北省",
        "city": "保定市",
        "area": "莲池区",
        "detail": 1,
        "uid": "da1642d38624ef59c41e511c"
      },
      {
        "name": "河北科技学院-综合实训园",
        "location": {
          "lat": 38.818902,
          "lng": 115.496906
        },
        "address": "河北省保定市莲池区荷塘路",
        "province": "河北省",
        "city": "保定市",
        "area": "莲池区",
        "detail": 1,
        "uid": "79b86e1afede89fa2fb17e87"
      }
    ]
  },
  {
    "schoolId": "13402",
    "schoolName": "河北外国语学院",
    "place": "校本部",
    "info": [
      {
        "name": "河北外国语学院",
        "location": {
          "lat": 38.00193,
          "lng": 114.461649
        },
        "address": "河北省石家庄红旗南大街汇丰西路29号",
        "province": "河北省",
        "city": "石家庄市",
        "area": "桥西区",
        "street_id": "0cea9b09a1c867e480a00ced",
        "telephone": "(0311)85238376,(0311)85237018,(0311)85237019",
        "detail": 1,
        "uid": "0cea9b09a1c867e480a00ced"
      },
      {
        "name": "河北外国语学院-南门",
        "location": {
          "lat": 38.001004,
          "lng": 114.462063
        },
        "address": "河北省石家庄市桥西区汇丰西路29号",
        "province": "河北省",
        "city": "石家庄市",
        "area": "桥西区",
        "street_id": "d622862a4e17796d30169b80",
        "detail": 1,
        "uid": "d622862a4e17796d30169b80"
      },
      {
        "name": "河北科技大学(新校区)-外国语学院",
        "location": {
          "lat": 37.98695,
          "lng": 114.529169
        },
        "address": "裕翔街26",
        "province": "河北省",
        "city": "石家庄市",
        "area": "裕华区",
        "street_id": "d817876f280e408ac37da2bb",
        "detail": 1,
        "uid": "d817876f280e408ac37da2bb"
      }
    ]
  },
  {
    "schoolId": "13895",
    "schoolName": "燕京理工学院",
    "place": "校本部",
    "info": []
  },
  {
    "schoolId": "14458",
    "schoolName": "张家口学院",
    "place": "校本部",
    "info": []
  },
  {
    "schoolId": "14459",
    "schoolName": "张家口学院",
    "place": "校本部",
    "info": []
  },
  {
    "schoolId": "51721",
    "schoolName": "河北环境工程学院",
    "place": "校本部",
    "info": [
      {
        "name": "河北科技大学环境科学与工程学院",
        "location": {
          "lat": 37.981479,
          "lng": 114.534209
        },
        "address": "裕翔街26号",
        "province": "河北省",
        "city": "石家庄市",
        "area": "裕华区",
        "detail": 1,
        "uid": "707f9f03653d932ff02d83fc"
      },
      {
        "name": "河北科技大学-环境科学与工程学院",
        "location": {
          "lat": 38.038716,
          "lng": 114.521724
        },
        "address": "裕华东路70号河北科技大学",
        "province": "河北省",
        "city": "石家庄市",
        "area": "裕华区",
        "street_id": "6b510201599bbe22cc06a49d",
        "detail": 1,
        "uid": "6b510201599bbe22cc06a49d"
      },
      {
        "name": "河北弘高环境工程有限公司",
        "location": {
          "lat": 38.061588,
          "lng": 114.506823
        },
        "address": "平安北大街158号东胜商务广场B座公馆10楼",
        "province": "河北省",
        "city": "石家庄市",
        "area": "长安区",
        "street_id": "ffa8aa6f5b71a1090582c27d",
        "detail": 1,
        "uid": "ffa8aa6f5b71a1090582c27d"
      },
      {
        "name": "河北嘉诚环境工程有限公司",
        "location": {
          "lat": 38.028027,
          "lng": 114.574888
        },
        "address": "河北省石家庄市裕华区槐安东路162号绿源大厦",
        "province": "河北省",
        "city": "石家庄市",
        "area": "裕华区",
        "street_id": "1deba41170f4f5b788db73ac",
        "detail": 1,
        "uid": "1deba41170f4f5b788db73ac"
      },
      {
        "name": "河北惠泽环境工程技术公司",
        "location": {
          "lat": 38.034462,
          "lng": 114.52088
        },
        "address": "槐中路113号",
        "province": "河北省",
        "city": "石家庄市",
        "area": "裕华区",
        "street_id": "7d5f3a0ab99fd7362db908b9",
        "detail": 1,
        "uid": "7d5f3a0ab99fd7362db908b9"
      },
      {
        "name": "河北富力环境工程有限公司",
        "location": {
          "lat": 38.043173,
          "lng": 114.489696
        },
        "address": "裕华西路9号裕园广场C座1单元603",
        "province": "河北省",
        "city": "石家庄市",
        "area": "桥西区",
        "street_id": "ce18df931801b57f047ce8dd",
        "detail": 1,
        "uid": "ce18df931801b57f047ce8dd"
      },
      {
        "name": "河北建楚环境工程有限公司",
        "location": {
          "lat": 38.054763,
          "lng": 114.439318
        },
        "address": "河北省石家庄市桥西区石获南路66号",
        "province": "河北省",
        "city": "石家庄市",
        "area": "桥西区",
        "street_id": "6b8ac4e6abcf68139de32157",
        "detail": 1,
        "uid": "6b8ac4e6abcf68139de32157"
      },
      {
        "name": "河北昊源环境工程有限公司",
        "location": {
          "lat": 37.985998,
          "lng": 114.518093
        },
        "address": "河北省石家庄市裕华区东大街9号",
        "province": "河北省",
        "city": "石家庄市",
        "area": "裕华区",
        "street_id": "39bc1e17486d2c7d2b201ad1",
        "detail": 1,
        "uid": "39bc1e17486d2c7d2b201ad1"
      },
      {
        "name": "河北伟诚环境工程有限公司",
        "location": {
          "lat": 38.012087,
          "lng": 114.476901
        },
        "address": "石家庄市桥西区新石南路与维明大街交叉口中华城1808",
        "province": "河北省",
        "city": "石家庄市",
        "area": "桥西区",
        "street_id": "e8582e66d64a71c76849f361",
        "detail": 1,
        "uid": "e8582e66d64a71c76849f361"
      },
      {
        "name": "河北红杉树环境工程有限公司",
        "location": {
          "lat": 38.033947,
          "lng": 114.531632
        },
        "address": "槐中路192号附近",
        "province": "河北省",
        "city": "石家庄市",
        "area": "裕华区",
        "street_id": "86655b88d01ec26eeb56fa6c",
        "detail": 1,
        "uid": "86655b88d01ec26eeb56fa6c"
      }
    ]
  }
]